{
"type": "FeatureCollection",
"name": "hotosm_jakarta_populated_places",
"crs": { "type": "name", "properties": { "name": "urn:ogc:def:crs:OGC:1.3:CRS84" } },
"features": [
{ "type": "Feature", "properties": { "osm_id": 29939632.0, "population": "10467629", "is_in": null, "source": null, "place": "city", "name": "Jakarta" }, "geometry": { "type": "Point", "coordinates": [ 106.827183, -6.1753942 ] } },
{ "type": "Feature", "properties": { "osm_id": 318881337.0, "population": "2185304", "is_in": null, "source": null, "place": "city", "name": "Tangerang" }, "geometry": { "type": "Point", "coordinates": [ 106.6384468, -6.1760311 ] } },
{ "type": "Feature", "properties": { "osm_id": 318882209.0, "population": "2334871", "is_in": "West Java, Indonesia, Asia", "source": null, "place": "city", "name": "Bekasi" }, "geometry": { "type": "Point", "coordinates": [ 106.9945444, -6.2349858 ] } },
{ "type": "Feature", "properties": { "osm_id": 630369001.0, "population": null, "is_in": null, "source": null, "place": "village", "name": "Jasinga" }, "geometry": { "type": "Point", "coordinates": [ 106.4734057, -6.4827589 ] } },
{ "type": "Feature", "properties": { "osm_id": 913078303.0, "population": null, "is_in": null, "source": null, "place": "village", "name": "Cibarusah" }, "geometry": { "type": "Point", "coordinates": [ 107.0626518, -6.4236573 ] } },
{ "type": "Feature", "properties": { "osm_id": 928473786.0, "population": "131.566", "is_in": null, "source": null, "place": "town", "name": "Balaraja" }, "geometry": { "type": "Point", "coordinates": [ 106.4628447, -6.1930173 ] } },
{ "type": "Feature", "properties": { "osm_id": 937833936.0, "population": null, "is_in": null, "source": null, "place": "village", "name": "Leuwiliang" }, "geometry": { "type": "Point", "coordinates": [ 106.6343847, -6.5745161 ] } },
{ "type": "Feature", "properties": { "osm_id": 1308636131.0, "population": null, "is_in": null, "source": null, "place": "village", "name": "Taman Rahayu" }, "geometry": { "type": "Point", "coordinates": [ 107.0390323, -6.3669203 ] } },
{ "type": "Feature", "properties": { "osm_id": 1308636317.0, "population": null, "is_in": null, "source": null, "place": "village", "name": "Cipete" }, "geometry": { "type": "Point", "coordinates": [ 106.6601679, -6.2014354 ] } },
{ "type": "Feature", "properties": { "osm_id": 1308636459.0, "population": null, "is_in": null, "source": null, "place": "village", "name": "Setu Sari" }, "geometry": { "type": "Point", "coordinates": [ 107.0026325, -6.4458052 ] } },
{ "type": "Feature", "properties": { "osm_id": 1308636682.0, "population": null, "is_in": null, "source": null, "place": "village", "name": "Pakulonan Barat" }, "geometry": { "type": "Point", "coordinates": [ 106.6325416, -6.237098 ] } },
{ "type": "Feature", "properties": { "osm_id": 1308636719.0, "population": null, "is_in": null, "source": null, "place": "village", "name": "Rawakalong" }, "geometry": { "type": "Point", "coordinates": [ 106.7120399, -6.3715349 ] } },
{ "type": "Feature", "properties": { "osm_id": 1308636831.0, "population": null, "is_in": null, "source": null, "place": "village", "name": "Ciketingudik" }, "geometry": { "type": "Point", "coordinates": [ 106.9866433, -6.3623077 ] } },
{ "type": "Feature", "properties": { "osm_id": 1308636835.0, "population": null, "is_in": null, "source": null, "place": "village", "name": "Jembatan Lima" }, "geometry": { "type": "Point", "coordinates": [ 106.8039276, -6.1445905 ] } },
{ "type": "Feature", "properties": { "osm_id": 1308636837.0, "population": null, "is_in": null, "source": null, "place": "village", "name": "Bunder" }, "geometry": { "type": "Point", "coordinates": [ 106.5526194, -6.2081477 ] } },
{ "type": "Feature", "properties": { "osm_id": 1308636893.0, "population": null, "is_in": null, "source": null, "place": "village", "name": "Bubulak" }, "geometry": { "type": "Point", "coordinates": [ 106.7576472, -6.5681181 ] } },
{ "type": "Feature", "properties": { "osm_id": 1308636915.0, "population": null, "is_in": null, "source": null, "place": "village", "name": "Karang Anyar" }, "geometry": { "type": "Point", "coordinates": [ 106.6460544, -6.1555531 ] } },
{ "type": "Feature", "properties": { "osm_id": 1308637031.0, "population": null, "is_in": null, "source": null, "place": "village", "name": "Medalkrisna" }, "geometry": { "type": "Point", "coordinates": [ 107.1688897, -6.426664 ] } },
{ "type": "Feature", "properties": { "osm_id": 1308637170.0, "population": null, "is_in": null, "source": null, "place": "village", "name": "Tanah Baru" }, "geometry": { "type": "Point", "coordinates": [ 106.8009126, -6.3762341 ] } },
{ "type": "Feature", "properties": { "osm_id": 1308637225.0, "population": null, "is_in": null, "source": null, "place": "village", "name": "Pasarbaru" }, "geometry": { "type": "Point", "coordinates": [ 106.6214909, -6.1652819 ] } },
{ "type": "Feature", "properties": { "osm_id": 1308637267.0, "population": null, "is_in": null, "source": null, "place": "village", "name": "Karyabakti" }, "geometry": { "type": "Point", "coordinates": [ 107.2094529, -6.0528306 ] } },
{ "type": "Feature", "properties": { "osm_id": 1308637290.0, "population": null, "is_in": null, "source": null, "place": "village", "name": "Weninggalih" }, "geometry": { "type": "Point", "coordinates": [ 107.0876447, -6.463852 ] } },
{ "type": "Feature", "properties": { "osm_id": 1308637357.0, "population": null, "is_in": null, "source": null, "place": "village", "name": "Muktiwari" }, "geometry": { "type": "Point", "coordinates": [ 107.1013104, -6.2135083 ] } },
{ "type": "Feature", "properties": { "osm_id": 1308637364.0, "population": null, "is_in": null, "source": null, "place": "village", "name": "Cijantra" }, "geometry": { "type": "Point", "coordinates": [ 106.6092776, -6.2829754 ] } },
{ "type": "Feature", "properties": { "osm_id": 1308637371.0, "population": null, "is_in": null, "source": null, "place": "village", "name": "Cibodas" }, "geometry": { "type": "Point", "coordinates": [ 106.6050489, -6.1943633 ] } },
{ "type": "Feature", "properties": { "osm_id": 1308637376.0, "population": null, "is_in": null, "source": null, "place": "village", "name": "Gandoang" }, "geometry": { "type": "Point", "coordinates": [ 107.0118699, -6.4124231 ] } },
{ "type": "Feature", "properties": { "osm_id": 1308637439.0, "population": null, "is_in": null, "source": null, "place": "village", "name": "Rancabuaya" }, "geometry": { "type": "Point", "coordinates": [ 106.5094179, -6.3179973 ] } },
{ "type": "Feature", "properties": { "osm_id": 1308637440.0, "population": null, "is_in": null, "source": null, "place": "village", "name": "Kelapa Gading Timur" }, "geometry": { "type": "Point", "coordinates": [ 106.9042145, -6.1682935 ] } },
{ "type": "Feature", "properties": { "osm_id": 1308637503.0, "population": null, "is_in": null, "source": null, "place": "village", "name": "Kebagusan" }, "geometry": { "type": "Point", "coordinates": [ 106.8312171, -6.3103102 ] } },
{ "type": "Feature", "properties": { "osm_id": 1308637808.0, "population": null, "is_in": null, "source": null, "place": "village", "name": "Pancoran Mas" }, "geometry": { "type": "Point", "coordinates": [ 106.813217, -6.4128065 ] } },
{ "type": "Feature", "properties": { "osm_id": 1308637950.0, "population": null, "is_in": null, "source": null, "place": "village", "name": "Pabuaran" }, "geometry": { "type": "Point", "coordinates": [ 106.8451445, -6.4575333 ] } },
{ "type": "Feature", "properties": { "osm_id": 1308638134.0, "population": null, "is_in": null, "source": null, "place": "village", "name": "Pakulonan" }, "geometry": { "type": "Point", "coordinates": [ 106.6518039, -6.2470603 ] } },
{ "type": "Feature", "properties": { "osm_id": 1308638331.0, "population": null, "is_in": null, "source": null, "place": "village", "name": "Keagungan" }, "geometry": { "type": "Point", "coordinates": [ 106.8145501, -6.1507326 ] } },
{ "type": "Feature", "properties": { "osm_id": 1308638698.0, "population": null, "is_in": null, "source": null, "place": "village", "name": "Kedoya Utara" }, "geometry": { "type": "Point", "coordinates": [ 106.7609655, -6.1685547 ] } },
{ "type": "Feature", "properties": { "osm_id": 1308638860.0, "population": null, "is_in": null, "source": null, "place": "village", "name": "Karangsatria" }, "geometry": { "type": "Point", "coordinates": [ 107.0460227, -6.2207155 ] } },
{ "type": "Feature", "properties": { "osm_id": 1308638901.0, "population": null, "is_in": null, "source": null, "place": "village", "name": "Karehkel" }, "geometry": { "type": "Point", "coordinates": [ 106.6393606, -6.5450729 ] } },
{ "type": "Feature", "properties": { "osm_id": 1308639147.0, "population": null, "is_in": null, "source": null, "place": "village", "name": "Kalibaru" }, "geometry": { "type": "Point", "coordinates": [ 106.8390045, -6.429834 ] } },
{ "type": "Feature", "properties": { "osm_id": 1308639590.0, "population": null, "is_in": null, "source": null, "place": "village", "name": "Cikahuripan" }, "geometry": { "type": "Point", "coordinates": [ 106.9624284, -6.4707165 ] } },
{ "type": "Feature", "properties": { "osm_id": 1308639799.0, "population": null, "is_in": null, "source": null, "place": "village", "name": "Rawa Mekar Jaya" }, "geometry": { "type": "Point", "coordinates": [ 106.6898966, -6.3071581 ] } },
{ "type": "Feature", "properties": { "osm_id": 1308639996.0, "population": null, "is_in": null, "source": null, "place": "village", "name": "Cirimekar" }, "geometry": { "type": "Point", "coordinates": [ 106.8584614, -6.4734452 ] } },
{ "type": "Feature", "properties": { "osm_id": 1308640190.0, "population": null, "is_in": null, "source": null, "place": "village", "name": "Rengas" }, "geometry": { "type": "Point", "coordinates": [ 106.7502342, -6.2814465 ] } },
{ "type": "Feature", "properties": { "osm_id": 1308640231.0, "population": null, "is_in": null, "source": null, "place": "village", "name": "Sudimara Selatan" }, "geometry": { "type": "Point", "coordinates": [ 106.6998128, -6.2347199 ] } },
{ "type": "Feature", "properties": { "osm_id": 1308640401.0, "population": null, "is_in": null, "source": null, "place": "village", "name": "Senen" }, "geometry": { "type": "Point", "coordinates": [ 106.8389595, -6.17644 ] } },
{ "type": "Feature", "properties": { "osm_id": 1308640621.0, "population": null, "is_in": null, "source": null, "place": "village", "name": "Telagamurni" }, "geometry": { "type": "Point", "coordinates": [ 107.1211107, -6.255531 ] } },
{ "type": "Feature", "properties": { "osm_id": 1308640663.0, "population": null, "is_in": null, "source": null, "place": "village", "name": "Sukaraksa" }, "geometry": { "type": "Point", "coordinates": [ 106.5280886, -6.5759141 ] } },
{ "type": "Feature", "properties": { "osm_id": 1308640822.0, "population": null, "is_in": null, "source": null, "place": "village", "name": "Tirtajaya" }, "geometry": { "type": "Point", "coordinates": [ 106.83969, -6.4047335 ] } },
{ "type": "Feature", "properties": { "osm_id": 1308641046.0, "population": null, "is_in": null, "source": null, "place": "village", "name": "Sukaluyu" }, "geometry": { "type": "Point", "coordinates": [ 106.5718876, -6.5891592 ] } },
{ "type": "Feature", "properties": { "osm_id": 1308641196.0, "population": null, "is_in": null, "source": null, "place": "village", "name": "Tanjung Anom" }, "geometry": { "type": "Point", "coordinates": [ 106.5409525, -6.0272623 ] } },
{ "type": "Feature", "properties": { "osm_id": 1308641380.0, "population": null, "is_in": null, "source": null, "place": "village", "name": "Citeureup" }, "geometry": { "type": "Point", "coordinates": [ 106.8915934, -6.4853635 ] } },
{ "type": "Feature", "properties": { "osm_id": 1308641566.0, "population": null, "is_in": null, "source": null, "place": "village", "name": "Sarua" }, "geometry": { "type": "Point", "coordinates": [ 106.7120612, -6.3116207 ] } },
{ "type": "Feature", "properties": { "osm_id": 1308641586.0, "population": null, "is_in": null, "source": null, "place": "village", "name": "Serdang" }, "geometry": { "type": "Point", "coordinates": [ 106.8613335, -6.1592853 ] } },
{ "type": "Feature", "properties": { "osm_id": 1308641762.0, "population": null, "is_in": null, "source": null, "place": "village", "name": "Gondangdia" }, "geometry": { "type": "Point", "coordinates": [ 106.8293576, -6.1911755 ] } },
{ "type": "Feature", "properties": { "osm_id": 1308641951.0, "population": null, "is_in": null, "source": null, "place": "village", "name": "Jatireja" }, "geometry": { "type": "Point", "coordinates": [ 107.1954623, -6.2869764 ] } },
{ "type": "Feature", "properties": { "osm_id": 1308642657.0, "population": null, "is_in": null, "source": null, "place": "village", "name": "Cijengkol" }, "geometry": { "type": "Point", "coordinates": [ 107.0484573, -6.3254077 ] } },
{ "type": "Feature", "properties": { "osm_id": 1308642966.0, "population": null, "is_in": null, "source": null, "place": "village", "name": "Pantaibahagia" }, "geometry": { "type": "Point", "coordinates": [ 107.0314308, -5.942705 ] } },
{ "type": "Feature", "properties": { "osm_id": 1308643007.0, "population": null, "is_in": null, "source": null, "place": "village", "name": "Suka Sari" }, "geometry": { "type": "Point", "coordinates": [ 106.5577004, -6.1211741 ] } },
{ "type": "Feature", "properties": { "osm_id": 1308643535.0, "population": null, "is_in": null, "source": null, "place": "village", "name": "Kramat Jati" }, "geometry": { "type": "Point", "coordinates": [ 106.8701892, -6.2728548 ] } },
{ "type": "Feature", "properties": { "osm_id": 1308643541.0, "population": null, "is_in": null, "source": null, "place": "village", "name": "Pondok Pucung" }, "geometry": { "type": "Point", "coordinates": [ 106.7096082, -6.2821372 ] } },
{ "type": "Feature", "properties": { "osm_id": 1308643760.0, "population": null, "is_in": null, "source": null, "place": "village", "name": "Pejuang" }, "geometry": { "type": "Point", "coordinates": [ 106.9891771, -6.1800384 ] } },
{ "type": "Feature", "properties": { "osm_id": 1308643773.0, "population": null, "is_in": null, "source": null, "place": "village", "name": "Jatinegara" }, "geometry": { "type": "Point", "coordinates": [ 106.9172456, -6.2034543 ] } },
{ "type": "Feature", "properties": { "osm_id": 1308643911.0, "population": null, "is_in": null, "source": null, "place": "village", "name": "Setiadarma" }, "geometry": { "type": "Point", "coordinates": [ 107.0577147, -6.2634206 ] } },
{ "type": "Feature", "properties": { "osm_id": 1308644308.0, "population": null, "is_in": null, "source": null, "place": "village", "name": "Lambangjaya" }, "geometry": { "type": "Point", "coordinates": [ 107.0610341, -6.2883026 ] } },
{ "type": "Feature", "properties": { "osm_id": 1308644338.0, "population": null, "is_in": null, "source": null, "place": "village", "name": "Kampung Melayu Timur" }, "geometry": { "type": "Point", "coordinates": [ 106.6524112, -6.0702569 ] } },
{ "type": "Feature", "properties": { "osm_id": 1308644496.0, "population": null, "is_in": null, "source": null, "place": "village", "name": "Lenggahjaya" }, "geometry": { "type": "Point", "coordinates": [ 107.1593774, -6.0770496 ] } },
{ "type": "Feature", "properties": { "osm_id": 1308644529.0, "population": null, "is_in": null, "source": null, "place": "village", "name": "Pisangan Jaya" }, "geometry": { "type": "Point", "coordinates": [ 106.5694495, -6.1114727 ] } },
{ "type": "Feature", "properties": { "osm_id": 1308644559.0, "population": null, "is_in": null, "source": null, "place": "village", "name": "Larangan Indah" }, "geometry": { "type": "Point", "coordinates": [ 106.7309395, -6.2328856 ] } },
{ "type": "Feature", "properties": { "osm_id": 1308644787.0, "population": null, "is_in": null, "source": null, "place": "village", "name": "Cibinong" }, "geometry": { "type": "Point", "coordinates": [ 106.8481639, -6.4806094 ] } },
{ "type": "Feature", "properties": { "osm_id": 1308644931.0, "population": null, "is_in": null, "source": null, "place": "village", "name": "Baru" }, "geometry": { "type": "Point", "coordinates": [ 106.8469824, -6.3235068 ] } },
{ "type": "Feature", "properties": { "osm_id": 1308644946.0, "population": null, "is_in": null, "source": null, "place": "village", "name": "Sindang Asih" }, "geometry": { "type": "Point", "coordinates": [ 106.4918619, -6.170108 ] } },
{ "type": "Feature", "properties": { "osm_id": 1308645140.0, "population": null, "is_in": null, "source": null, "place": "village", "name": "Semper Barat" }, "geometry": { "type": "Point", "coordinates": [ 106.9243509, -6.1238539 ] } },
{ "type": "Feature", "properties": { "osm_id": 1308645368.0, "population": null, "is_in": null, "source": null, "place": "village", "name": "Cikedokan" }, "geometry": { "type": "Point", "coordinates": [ 107.0888587, -6.3336493 ] } },
{ "type": "Feature", "properties": { "osm_id": 1308645457.0, "population": null, "is_in": null, "source": null, "place": "village", "name": "Kedungpengawas" }, "geometry": { "type": "Point", "coordinates": [ 107.0275994, -6.1557322 ] } },
{ "type": "Feature", "properties": { "osm_id": 1308645464.0, "population": null, "is_in": null, "source": null, "place": "village", "name": "Kohod" }, "geometry": { "type": "Point", "coordinates": [ 106.6192044, -6.0322941 ] } },
{ "type": "Feature", "properties": { "osm_id": 1308645476.0, "population": null, "is_in": null, "source": null, "place": "village", "name": "Poris Plawad Utara" }, "geometry": { "type": "Point", "coordinates": [ 106.6649981, -6.1843153 ] } },
{ "type": "Feature", "properties": { "osm_id": 1308645540.0, "population": null, "is_in": null, "source": null, "place": "village", "name": "Gobang" }, "geometry": { "type": "Point", "coordinates": [ 106.63846, -6.504174 ] } },
{ "type": "Feature", "properties": { "osm_id": 1308645598.0, "population": null, "is_in": null, "source": null, "place": "village", "name": "Sukamulya" }, "geometry": { "type": "Point", "coordinates": [ 107.1742209, -6.1541118 ] } },
{ "type": "Feature", "properties": { "osm_id": 1308645617.0, "population": null, "is_in": null, "source": null, "place": "village", "name": "Mekar Bakti" }, "geometry": { "type": "Point", "coordinates": [ 106.5182773, -6.2600606 ] } },
{ "type": "Feature", "properties": { "osm_id": 1308645638.0, "population": null, "is_in": null, "source": null, "place": "village", "name": "Jagabita" }, "geometry": { "type": "Point", "coordinates": [ 106.5292343, -6.3337837 ] } },
{ "type": "Feature", "properties": { "osm_id": 1308645695.0, "population": null, "is_in": null, "source": null, "place": "village", "name": "Jatiwarna" }, "geometry": { "type": "Point", "coordinates": [ 106.9319108, -6.3098164 ] } },
{ "type": "Feature", "properties": { "osm_id": 1308645756.0, "population": null, "is_in": null, "source": null, "place": "village", "name": "Sukaresmi" }, "geometry": { "type": "Point", "coordinates": [ 106.8058813, -6.5539801 ] } },
{ "type": "Feature", "properties": { "osm_id": 1308645818.0, "population": null, "is_in": null, "source": null, "place": "village", "name": "Segaran" }, "geometry": { "type": "Point", "coordinates": [ 107.179312, -6.0579656 ] } },
{ "type": "Feature", "properties": { "osm_id": 1308645895.0, "population": null, "is_in": null, "source": null, "place": "village", "name": "Cilangkara" }, "geometry": { "type": "Point", "coordinates": [ 107.1484496, -6.381816 ] } },
{ "type": "Feature", "properties": { "osm_id": 1308645988.0, "population": null, "is_in": null, "source": null, "place": "village", "name": "Gandul" }, "geometry": { "type": "Point", "coordinates": [ 106.7868933, -6.3486164 ] } },
{ "type": "Feature", "properties": { "osm_id": 1308646012.0, "population": null, "is_in": null, "source": null, "place": "village", "name": "Karawaci Baru" }, "geometry": { "type": "Point", "coordinates": [ 106.6134741, -6.2038296 ] } },
{ "type": "Feature", "properties": { "osm_id": 1308646073.0, "population": null, "is_in": null, "source": null, "place": "village", "name": "Barengkok" }, "geometry": { "type": "Point", "coordinates": [ 106.4886524, -6.4402777 ] } },
{ "type": "Feature", "properties": { "osm_id": 1308646177.0, "population": null, "is_in": null, "source": null, "place": "village", "name": "Serdang Wetan" }, "geometry": { "type": "Point", "coordinates": [ 106.5627261, -6.2859515 ] } },
{ "type": "Feature", "properties": { "osm_id": 1308646186.0, "population": null, "is_in": null, "source": null, "place": "village", "name": "Jagabaya" }, "geometry": { "type": "Point", "coordinates": [ 106.5386523, -6.3979312 ] } },
{ "type": "Feature", "properties": { "osm_id": 1308646241.0, "population": null, "is_in": null, "source": null, "place": "village", "name": "Pengasinan" }, "geometry": { "type": "Point", "coordinates": [ 107.0163175, -6.2741995 ] } },
{ "type": "Feature", "properties": { "osm_id": 1308646245.0, "population": "167.487", "is_in": null, "source": null, "place": "town", "name": "Tigaraksa" }, "geometry": { "type": "Point", "coordinates": [ 106.484353, -6.2691134 ] } },
{ "type": "Feature", "properties": { "osm_id": 1308646249.0, "population": null, "is_in": null, "source": null, "place": "village", "name": "Papanggo" }, "geometry": { "type": "Point", "coordinates": [ 106.8721639, -6.129201 ] } },
{ "type": "Feature", "properties": { "osm_id": 1308646349.0, "population": null, "is_in": null, "source": null, "place": "village", "name": "Tanah Sareal" }, "geometry": { "type": "Point", "coordinates": [ 106.8007387, -6.5734704 ] } },
{ "type": "Feature", "properties": { "osm_id": 1308646367.0, "population": null, "is_in": null, "source": null, "place": "village", "name": "Pondok Pinang" }, "geometry": { "type": "Point", "coordinates": [ 106.7789504, -6.2736372 ] } },
{ "type": "Feature", "properties": { "osm_id": 1308646391.0, "population": null, "is_in": null, "source": null, "place": "village", "name": "Kedaung Wetan" }, "geometry": { "type": "Point", "coordinates": [ 106.6213788, -6.1372033 ] } },
{ "type": "Feature", "properties": { "osm_id": 1308646762.0, "population": null, "is_in": null, "source": null, "place": "village", "name": "Sukanegara" }, "geometry": { "type": "Point", "coordinates": [ 107.0121374, -6.5337777 ] } },
{ "type": "Feature", "properties": { "osm_id": 1308646936.0, "population": null, "is_in": null, "source": null, "place": "village", "name": "Jatake" }, "geometry": { "type": "Point", "coordinates": [ 106.5767619, -6.2077083 ] } },
{ "type": "Feature", "properties": { "osm_id": 1308647112.0, "population": null, "is_in": null, "source": null, "place": "village", "name": "Rumpin" }, "geometry": { "type": "Point", "coordinates": [ 106.6507194, -6.4450886 ] } },
{ "type": "Feature", "properties": { "osm_id": 1308647246.0, "population": null, "is_in": null, "source": null, "place": "village", "name": "Karangindah" }, "geometry": { "type": "Point", "coordinates": [ 107.1450937, -6.4595577 ] } },
{ "type": "Feature", "properties": { "osm_id": 1308647260.0, "population": null, "is_in": null, "source": null, "place": "village", "name": "Kadu Jaya" }, "geometry": { "type": "Point", "coordinates": [ 106.5552165, -6.2346036 ] } },
{ "type": "Feature", "properties": { "osm_id": 1308647297.0, "population": null, "is_in": null, "source": null, "place": "village", "name": "Cidokom" }, "geometry": { "type": "Point", "coordinates": [ 106.708983, -6.4112051 ] } },
{ "type": "Feature", "properties": { "osm_id": 1308647414.0, "population": null, "is_in": null, "source": null, "place": "village", "name": "Cigunungsari" }, "geometry": { "type": "Point", "coordinates": [ 107.2218422, -6.5257933 ] } },
{ "type": "Feature", "properties": { "osm_id": 1308647425.0, "population": null, "is_in": null, "source": null, "place": "village", "name": "Jatisari" }, "geometry": { "type": "Point", "coordinates": [ 106.9452574, -6.3392957 ] } },
{ "type": "Feature", "properties": { "osm_id": 1308647443.0, "population": null, "is_in": null, "source": null, "place": "village", "name": "Mangga Besar" }, "geometry": { "type": "Point", "coordinates": [ 106.8187154, -6.1455551 ] } },
{ "type": "Feature", "properties": { "osm_id": 1308647574.0, "population": null, "is_in": null, "source": null, "place": "village", "name": "Pela Mampang" }, "geometry": { "type": "Point", "coordinates": [ 106.8176031, -6.2482363 ] } },
{ "type": "Feature", "properties": { "osm_id": 1308647604.0, "population": null, "is_in": null, "source": null, "place": "village", "name": "Poris Jaya" }, "geometry": { "type": "Point", "coordinates": [ 106.67547, -6.1745547 ] } },
{ "type": "Feature", "properties": { "osm_id": 1308647947.0, "population": null, "is_in": null, "source": null, "place": "village", "name": "Sukamaju" }, "geometry": { "type": "Point", "coordinates": [ 106.5097921, -6.5438767 ] } },
{ "type": "Feature", "properties": { "osm_id": 1308648045.0, "population": null, "is_in": null, "source": null, "place": "village", "name": "Limo" }, "geometry": { "type": "Point", "coordinates": [ 106.7699974, -6.3652567 ] } },
{ "type": "Feature", "properties": { "osm_id": 1308648295.0, "population": null, "is_in": null, "source": null, "place": "village", "name": "Bugel" }, "geometry": { "type": "Point", "coordinates": [ 106.6057405, -6.1766586 ] } },
{ "type": "Feature", "properties": { "osm_id": 1308648500.0, "population": null, "is_in": null, "source": null, "place": "village", "name": "Ligarmukti" }, "geometry": { "type": "Point", "coordinates": [ 106.9457779, -6.4637337 ] } },
{ "type": "Feature", "properties": { "osm_id": 1308648666.0, "population": null, "is_in": null, "source": null, "place": "village", "name": "Jalenjaya" }, "geometry": { "type": "Point", "coordinates": [ 107.0712803, -6.2087401 ] } },
{ "type": "Feature", "properties": { "osm_id": 1308648690.0, "population": null, "is_in": null, "source": null, "place": "village", "name": "Jatake" }, "geometry": { "type": "Point", "coordinates": [ 106.5934096, -6.3225198 ] } },
{ "type": "Feature", "properties": { "osm_id": 1308648707.0, "population": null, "is_in": null, "source": null, "place": "village", "name": "Kroncong" }, "geometry": { "type": "Point", "coordinates": [ 106.585174, -6.1875883 ] } },
{ "type": "Feature", "properties": { "osm_id": 1308648897.0, "population": null, "is_in": null, "source": null, "place": "village", "name": "Jelambar" }, "geometry": { "type": "Point", "coordinates": [ 106.7861493, -6.1593443 ] } },
{ "type": "Feature", "properties": { "osm_id": 1308649069.0, "population": null, "is_in": null, "source": null, "place": "village", "name": "Jati Padang" }, "geometry": { "type": "Point", "coordinates": [ 106.8305449, -6.2872405 ] } },
{ "type": "Feature", "properties": { "osm_id": 1308649094.0, "population": null, "is_in": null, "source": null, "place": "village", "name": "Benda" }, "geometry": { "type": "Point", "coordinates": [ 106.6861543, -6.1101672 ] } },
{ "type": "Feature", "properties": { "osm_id": 1308649241.0, "population": null, "is_in": null, "source": null, "place": "village", "name": "Kedoya Selatan" }, "geometry": { "type": "Point", "coordinates": [ 106.7603535, -6.180638 ] } },
{ "type": "Feature", "properties": { "osm_id": 1308649447.0, "population": null, "is_in": null, "source": null, "place": "village", "name": "Bantar Sari" }, "geometry": { "type": "Point", "coordinates": [ 106.7465069, -6.5267106 ] } },
{ "type": "Feature", "properties": { "osm_id": 1308649999.0, "population": null, "is_in": null, "source": null, "place": "village", "name": "Putat Nutug" }, "geometry": { "type": "Point", "coordinates": [ 106.6798801, -6.4695228 ] } },
{ "type": "Feature", "properties": { "osm_id": 1308650129.0, "population": null, "is_in": null, "source": null, "place": "village", "name": "Tanjung Mekar" }, "geometry": { "type": "Point", "coordinates": [ 107.1067465, -5.9944971 ] } },
{ "type": "Feature", "properties": { "osm_id": 1308650150.0, "population": null, "is_in": null, "source": null, "place": "village", "name": "Lengkong Gudang Timur" }, "geometry": { "type": "Point", "coordinates": [ 106.6851395, -6.2928324 ] } },
{ "type": "Feature", "properties": { "osm_id": 1308650331.0, "population": null, "is_in": null, "source": null, "place": "village", "name": "Rabak" }, "geometry": { "type": "Point", "coordinates": [ 106.636446, -6.4842578 ] } },
{ "type": "Feature", "properties": { "osm_id": 1308650701.0, "population": null, "is_in": null, "source": null, "place": "village", "name": "Kebon Sirih" }, "geometry": { "type": "Point", "coordinates": [ 106.8311054, -6.1850822 ] } },
{ "type": "Feature", "properties": { "osm_id": 1308650938.0, "population": null, "is_in": null, "source": null, "place": "village", "name": "Atang Senjaya" }, "geometry": { "type": "Point", "coordinates": [ 106.7628527, -6.5387993 ] } },
{ "type": "Feature", "properties": { "osm_id": 1308651072.0, "population": null, "is_in": null, "source": null, "place": "village", "name": "Jatijajar" }, "geometry": { "type": "Point", "coordinates": [ 106.8640625, -6.4116983 ] } },
{ "type": "Feature", "properties": { "osm_id": 1308651101.0, "population": null, "is_in": null, "source": null, "place": "village", "name": "Tegal Kunir Kidul" }, "geometry": { "type": "Point", "coordinates": [ 106.5334741, -6.0664083 ] } },
{ "type": "Feature", "properties": { "osm_id": 1308651295.0, "population": null, "is_in": null, "source": null, "place": "village", "name": "Gunung Putri" }, "geometry": { "type": "Point", "coordinates": [ 106.8907074, -6.4646458 ] } },
{ "type": "Feature", "properties": { "osm_id": 1308651454.0, "population": null, "is_in": null, "source": null, "place": "village", "name": "Gintung" }, "geometry": { "type": "Point", "coordinates": [ 106.5549109, -6.097697 ] } },
{ "type": "Feature", "properties": { "osm_id": 1308651474.0, "population": null, "is_in": null, "source": null, "place": "village", "name": "Sukabumi Selatan" }, "geometry": { "type": "Point", "coordinates": [ 106.7721536, -6.2215483 ] } },
{ "type": "Feature", "properties": { "osm_id": 1308651649.0, "population": null, "is_in": null, "source": null, "place": "village", "name": "Kalisuren" }, "geometry": { "type": "Point", "coordinates": [ 106.7477612, -6.4774553 ] } },
{ "type": "Feature", "properties": { "osm_id": 1308651813.0, "population": null, "is_in": null, "source": null, "place": "village", "name": "Cipinang Besar Selatan" }, "geometry": { "type": "Point", "coordinates": [ 106.8800948, -6.2290933 ] } },
{ "type": "Feature", "properties": { "osm_id": 1308651817.0, "population": null, "is_in": null, "source": null, "place": "town", "name": "Ciputat" }, "geometry": { "type": "Point", "coordinates": [ 106.747746, -6.3060477 ] } },
{ "type": "Feature", "properties": { "osm_id": 1308651943.0, "population": null, "is_in": null, "source": null, "place": "village", "name": "Slipi" }, "geometry": { "type": "Point", "coordinates": [ 106.8014346, -6.1939108 ] } },
{ "type": "Feature", "properties": { "osm_id": 1308652020.0, "population": null, "is_in": null, "source": null, "place": "village", "name": "Karangraharja" }, "geometry": { "type": "Point", "coordinates": [ 107.1808995, -6.2492399 ] } },
{ "type": "Feature", "properties": { "osm_id": 1308652073.0, "population": null, "is_in": null, "source": null, "place": "village", "name": "Babakan Madang" }, "geometry": { "type": "Point", "coordinates": [ 106.8640262, -6.5640263 ] } },
{ "type": "Feature", "properties": { "osm_id": 1308652494.0, "population": null, "is_in": null, "source": null, "place": "village", "name": "Kp. Setu Tonggoh" }, "geometry": { "type": "Point", "coordinates": [ 106.6322067, -6.5799248 ] } },
{ "type": "Feature", "properties": { "osm_id": 1308652642.0, "population": null, "is_in": null, "source": null, "place": "village", "name": "Pantai Harapanjaya" }, "geometry": { "type": "Point", "coordinates": [ 107.0551006, -6.0331433 ] } },
{ "type": "Feature", "properties": { "osm_id": 1308652674.0, "population": null, "is_in": null, "source": null, "place": "village", "name": "Ranca Bango" }, "geometry": { "type": "Point", "coordinates": [ 106.49297, -6.1016001 ] } },
{ "type": "Feature", "properties": { "osm_id": 1308652928.0, "population": null, "is_in": null, "source": null, "place": "village", "name": "Tajur Halang" }, "geometry": { "type": "Point", "coordinates": [ 106.7714024, -6.4850814 ] } },
{ "type": "Feature", "properties": { "osm_id": 1308653172.0, "population": null, "is_in": null, "source": null, "place": "village", "name": "Pinang Ranti" }, "geometry": { "type": "Point", "coordinates": [ 106.8833312, -6.2884275 ] } },
{ "type": "Feature", "properties": { "osm_id": 1308653208.0, "population": null, "is_in": null, "source": null, "place": "village", "name": "Suka Harja" }, "geometry": { "type": "Point", "coordinates": [ 106.5197954, -6.1857955 ] } },
{ "type": "Feature", "properties": { "osm_id": 1308653477.0, "population": null, "is_in": null, "source": null, "place": "village", "name": "Kebon Kacang" }, "geometry": { "type": "Point", "coordinates": [ 106.8166009, -6.1902407 ] } },
{ "type": "Feature", "properties": { "osm_id": 1308653719.0, "population": null, "is_in": null, "source": null, "place": "village", "name": "Cibuntu" }, "geometry": { "type": "Point", "coordinates": [ 107.0759256, -6.2825164 ] } },
{ "type": "Feature", "properties": { "osm_id": 1308654339.0, "population": null, "is_in": null, "source": null, "place": "village", "name": "Sertajaya" }, "geometry": { "type": "Point", "coordinates": [ 107.1872401, -6.3051951 ] } },
{ "type": "Feature", "properties": { "osm_id": 1308654399.0, "population": null, "is_in": null, "source": null, "place": "village", "name": "Rawa Rengas" }, "geometry": { "type": "Point", "coordinates": [ 106.6478725, -6.1115197 ] } },
{ "type": "Feature", "properties": { "osm_id": 1308654418.0, "population": null, "is_in": null, "source": null, "place": "village", "name": "Bojong Jengkol" }, "geometry": { "type": "Point", "coordinates": [ 106.7070482, -6.5891643 ] } },
{ "type": "Feature", "properties": { "osm_id": 1308654644.0, "population": null, "is_in": null, "source": null, "place": "village", "name": "Pantaimakmur" }, "geometry": { "type": "Point", "coordinates": [ 106.9838133, -6.1001362 ] } },
{ "type": "Feature", "properties": { "osm_id": 1308654671.0, "population": null, "is_in": null, "source": null, "place": "village", "name": "Karang Serang" }, "geometry": { "type": "Point", "coordinates": [ 106.5564094, -6.0350534 ] } },
{ "type": "Feature", "properties": { "osm_id": 1308654707.0, "population": null, "is_in": null, "source": null, "place": "village", "name": "Karang Timur" }, "geometry": { "type": "Point", "coordinates": [ 106.7148163, -6.2216962 ] } },
{ "type": "Feature", "properties": { "osm_id": 1308654891.0, "population": null, "is_in": null, "source": null, "place": "village", "name": "Banyu Asih" }, "geometry": { "type": "Point", "coordinates": [ 106.6023571, -6.5036559 ] } },
{ "type": "Feature", "properties": { "osm_id": 1308655126.0, "population": null, "is_in": null, "source": null, "place": "village", "name": "Talagasari" }, "geometry": { "type": "Point", "coordinates": [ 106.4627867, -6.2053962 ] } },
{ "type": "Feature", "properties": { "osm_id": 1308655309.0, "population": null, "is_in": null, "source": null, "place": "village", "name": "Ratujaya" }, "geometry": { "type": "Point", "coordinates": [ 106.8117907, -6.4352687 ] } },
{ "type": "Feature", "properties": { "osm_id": 1308655330.0, "population": null, "is_in": null, "source": null, "place": "village", "name": "Rawamangun" }, "geometry": { "type": "Point", "coordinates": [ 106.8847253, -6.1959278 ] } },
{ "type": "Feature", "properties": { "osm_id": 1308655962.0, "population": null, "is_in": null, "source": null, "place": "village", "name": "Sukasejati" }, "geometry": { "type": "Point", "coordinates": [ 107.0912032, -6.3537617 ] } },
{ "type": "Feature", "properties": { "osm_id": 1308656116.0, "population": null, "is_in": null, "source": null, "place": "village", "name": "Jayabakti" }, "geometry": { "type": "Point", "coordinates": [ 107.1088002, -6.0722376 ] } },
{ "type": "Feature", "properties": { "osm_id": 1308656129.0, "population": null, "is_in": null, "source": null, "place": "village", "name": "Lebak Wangi" }, "geometry": { "type": "Point", "coordinates": [ 106.598252, -6.1400158 ] } },
{ "type": "Feature", "properties": { "osm_id": 1308656139.0, "population": null, "is_in": null, "source": null, "place": "village", "name": "Larangan Selatan" }, "geometry": { "type": "Point", "coordinates": [ 106.7260876, -6.2500932 ] } },
{ "type": "Feature", "properties": { "osm_id": 1308656205.0, "population": null, "is_in": null, "source": null, "place": "village", "name": "Banyu Resmi" }, "geometry": { "type": "Point", "coordinates": [ 106.5771166, -6.5251185 ] } },
{ "type": "Feature", "properties": { "osm_id": 1308656270.0, "population": null, "is_in": null, "source": null, "place": "village", "name": "Bambu Apus" }, "geometry": { "type": "Point", "coordinates": [ 106.9009726, -6.3131056 ] } },
{ "type": "Feature", "properties": { "osm_id": 1308656276.0, "population": null, "is_in": null, "source": null, "place": "village", "name": "Kuta Baru" }, "geometry": { "type": "Point", "coordinates": [ 106.5750709, -6.1540831 ] } },
{ "type": "Feature", "properties": { "osm_id": 1308656351.0, "population": null, "is_in": null, "source": null, "place": "village", "name": "Bintara" }, "geometry": { "type": "Point", "coordinates": [ 106.9590778, -6.2354818 ] } },
{ "type": "Feature", "properties": { "osm_id": 1308656417.0, "population": null, "is_in": null, "source": null, "place": "village", "name": "Situ Gede" }, "geometry": { "type": "Point", "coordinates": [ 106.7558304, -6.5582169 ] } },
{ "type": "Feature", "properties": { "osm_id": 1308656567.0, "population": null, "is_in": null, "source": null, "place": "village", "name": "Nagacipta" }, "geometry": { "type": "Point", "coordinates": [ 107.1504101, -6.4156444 ] } },
{ "type": "Feature", "properties": { "osm_id": 1308656585.0, "population": null, "is_in": null, "source": null, "place": "village", "name": "Kosambi Barat" }, "geometry": { "type": "Point", "coordinates": [ 106.6990677, -6.0700162 ] } },
{ "type": "Feature", "properties": { "osm_id": 1308656661.0, "population": null, "is_in": null, "source": null, "place": "village", "name": "Pusakarakyat" }, "geometry": { "type": "Point", "coordinates": [ 106.9777675, -6.1471167 ] } },
{ "type": "Feature", "properties": { "osm_id": 1308656671.0, "population": null, "is_in": null, "source": null, "place": "village", "name": "Paku Alam" }, "geometry": { "type": "Point", "coordinates": [ 106.5892293, -6.0684094 ] } },
{ "type": "Feature", "properties": { "osm_id": 1308656685.0, "population": null, "is_in": null, "source": null, "place": "village", "name": "Kenanga" }, "geometry": { "type": "Point", "coordinates": [ 106.6859049, -6.1938781 ] } },
{ "type": "Feature", "properties": { "osm_id": 1308656802.0, "population": null, "is_in": null, "source": null, "place": "village", "name": "Kuripan" }, "geometry": { "type": "Point", "coordinates": [ 106.6673335, -6.4295871 ] } },
{ "type": "Feature", "properties": { "osm_id": 1308656874.0, "population": null, "is_in": null, "source": null, "place": "village", "name": "Karangreja" }, "geometry": { "type": "Point", "coordinates": [ 107.2249327, -6.1471335 ] } },
{ "type": "Feature", "properties": { "osm_id": 1308656875.0, "population": null, "is_in": null, "source": null, "place": "village", "name": "Karet Semanggi" }, "geometry": { "type": "Point", "coordinates": [ 106.8182629, -6.2229244 ] } },
{ "type": "Feature", "properties": { "osm_id": 1308656880.0, "population": null, "is_in": null, "source": null, "place": "village", "name": "Ranca Iyuh" }, "geometry": { "type": "Point", "coordinates": [ 106.5234281, -6.3052759 ] } },
{ "type": "Feature", "properties": { "osm_id": 1308656956.0, "population": null, "is_in": null, "source": null, "place": "village", "name": "Sunter Jaya" }, "geometry": { "type": "Point", "coordinates": [ 106.8781723, -6.151857 ] } },
{ "type": "Feature", "properties": { "osm_id": 1308657019.0, "population": null, "is_in": null, "source": null, "place": "village", "name": "Mekarwangi" }, "geometry": { "type": "Point", "coordinates": [ 106.7832955, -6.5305247 ] } },
{ "type": "Feature", "properties": { "osm_id": 1308657025.0, "population": null, "is_in": null, "source": null, "place": "village", "name": "Kuningan Barat" }, "geometry": { "type": "Point", "coordinates": [ 106.8218724, -6.2364893 ] } },
{ "type": "Feature", "properties": { "osm_id": 1308657122.0, "population": null, "is_in": null, "source": null, "place": "village", "name": "Taman Sari" }, "geometry": { "type": "Point", "coordinates": [ 107.0098623, -6.3690854 ] } },
{ "type": "Feature", "properties": { "osm_id": 1308657233.0, "population": null, "is_in": null, "source": null, "place": "village", "name": "Babakan" }, "geometry": { "type": "Point", "coordinates": [ 106.6369028, -6.1917883 ] } },
{ "type": "Feature", "properties": { "osm_id": 1308657400.0, "population": null, "is_in": null, "source": null, "place": "village", "name": "Sukamanah" }, "geometry": { "type": "Point", "coordinates": [ 107.1680967, -6.1845674 ] } },
{ "type": "Feature", "properties": { "osm_id": 1308657415.0, "population": null, "is_in": null, "source": null, "place": "village", "name": "Bojong Kamal" }, "geometry": { "type": "Point", "coordinates": [ 106.5584552, -6.3212462 ] } },
{ "type": "Feature", "properties": { "osm_id": 1308657437.0, "population": null, "is_in": null, "source": null, "place": "village", "name": "Limus Nunggal" }, "geometry": { "type": "Point", "coordinates": [ 106.9609963, -6.3942288 ] } },
{ "type": "Feature", "properties": { "osm_id": 1308657507.0, "population": null, "is_in": null, "source": null, "place": "village", "name": "Jelambar Baru" }, "geometry": { "type": "Point", "coordinates": [ 106.7869928, -6.1487012 ] } },
{ "type": "Feature", "properties": { "osm_id": 1308657512.0, "population": null, "is_in": null, "source": null, "place": "village", "name": "Pasir Gadung" }, "geometry": { "type": "Point", "coordinates": [ 106.5236613, -6.2171125 ] } },
{ "type": "Feature", "properties": { "osm_id": 1308657582.0, "population": null, "is_in": null, "source": null, "place": "village", "name": "Kedungwaringin" }, "geometry": { "type": "Point", "coordinates": [ 106.783348, -6.5689895 ] } },
{ "type": "Feature", "properties": { "osm_id": 1308657602.0, "population": null, "is_in": null, "source": null, "place": "village", "name": "Batusari" }, "geometry": { "type": "Point", "coordinates": [ 106.6523038, -6.154869 ] } },
{ "type": "Feature", "properties": { "osm_id": 1308657734.0, "population": null, "is_in": null, "source": null, "place": "village", "name": "Cibarusahkota" }, "geometry": { "type": "Point", "coordinates": [ 107.0882239, -6.4297728 ] } },
{ "type": "Feature", "properties": { "osm_id": 1308657759.0, "population": null, "is_in": null, "source": null, "place": "village", "name": "Cibodas" }, "geometry": { "type": "Point", "coordinates": [ 106.9881468, -6.5205813 ] } },
{ "type": "Feature", "properties": { "osm_id": 1308657814.0, "population": null, "is_in": null, "source": null, "place": "village", "name": "Harjamukti" }, "geometry": { "type": "Point", "coordinates": [ 106.8911106, -6.3814395 ] } },
{ "type": "Feature", "properties": { "osm_id": 1308657834.0, "population": null, "is_in": null, "source": null, "place": "village", "name": "Koangjaya" }, "geometry": { "type": "Point", "coordinates": [ 106.6250957, -6.1590271 ] } },
{ "type": "Feature", "properties": { "osm_id": 1308657906.0, "population": null, "is_in": null, "source": null, "place": "village", "name": "Bagoang" }, "geometry": { "type": "Point", "coordinates": [ 106.4603863, -6.4369625 ] } },
{ "type": "Feature", "properties": { "osm_id": 1308657976.0, "population": null, "is_in": null, "source": null, "place": "village", "name": "Karangmukti" }, "geometry": { "type": "Point", "coordinates": [ 107.2211721, -6.2148632 ] } },
{ "type": "Feature", "properties": { "osm_id": 1308657999.0, "population": null, "is_in": null, "source": null, "place": "village", "name": "Gembor" }, "geometry": { "type": "Point", "coordinates": [ 106.5788704, -6.1754313 ] } },
{ "type": "Feature", "properties": { "osm_id": 1308658002.0, "population": null, "is_in": null, "source": null, "place": "village", "name": "Pangaur" }, "geometry": { "type": "Point", "coordinates": [ 106.4712942, -6.4142614 ] } },
{ "type": "Feature", "properties": { "osm_id": 1308658071.0, "population": null, "is_in": null, "source": null, "place": "village", "name": "Ancol Pasir" }, "geometry": { "type": "Point", "coordinates": [ 106.5063289, -6.3269431 ] } },
{ "type": "Feature", "properties": { "osm_id": 1308658184.0, "population": null, "is_in": null, "source": null, "place": "village", "name": "Pondok Labu" }, "geometry": { "type": "Point", "coordinates": [ 106.7978563, -6.3087725 ] } },
{ "type": "Feature", "properties": { "osm_id": 1308658538.0, "population": null, "is_in": null, "source": null, "place": "village", "name": "Hambalang" }, "geometry": { "type": "Point", "coordinates": [ 106.8938523, -6.5463606 ] } },
{ "type": "Feature", "properties": { "osm_id": 1308658611.0, "population": null, "is_in": null, "source": null, "place": "village", "name": "Mampang" }, "geometry": { "type": "Point", "coordinates": [ 106.8027534, -6.3971138 ] } },
{ "type": "Feature", "properties": { "osm_id": 1308658736.0, "population": null, "is_in": null, "source": null, "place": "village", "name": "Jabon Mekar" }, "geometry": { "type": "Point", "coordinates": [ 106.7275804, -6.4515228 ] } },
{ "type": "Feature", "properties": { "osm_id": 1308658772.0, "population": null, "is_in": null, "source": null, "place": "village", "name": "Mekarwangi" }, "geometry": { "type": "Point", "coordinates": [ 106.5985292, -6.3507719 ] } },
{ "type": "Feature", "properties": { "osm_id": 1308659320.0, "population": null, "is_in": null, "source": null, "place": "village", "name": "Rawa Buaya" }, "geometry": { "type": "Point", "coordinates": [ 106.7375147, -6.1616396 ] } },
{ "type": "Feature", "properties": { "osm_id": 1308659384.0, "population": null, "is_in": null, "source": null, "place": "village", "name": "Sukaraya" }, "geometry": { "type": "Point", "coordinates": [ 107.170049, -6.2291207 ] } },
{ "type": "Feature", "properties": { "osm_id": 1308659394.0, "population": null, "is_in": null, "source": null, "place": "village", "name": "Cikarawang" }, "geometry": { "type": "Point", "coordinates": [ 106.7400054, -6.550954 ] } },
{ "type": "Feature", "properties": { "osm_id": 1308659525.0, "population": null, "is_in": null, "source": null, "place": "village", "name": "Bakti Jaya" }, "geometry": { "type": "Point", "coordinates": [ 106.8491943, -6.3886829 ] } },
{ "type": "Feature", "properties": { "osm_id": 1308659580.0, "population": null, "is_in": null, "source": null, "place": "village", "name": null }, "geometry": { "type": "Point", "coordinates": [ 106.9672422, -6.4916385 ] } },
{ "type": "Feature", "properties": { "osm_id": 1308659616.0, "population": null, "is_in": null, "source": null, "place": "village", "name": "Ciater" }, "geometry": { "type": "Point", "coordinates": [ 106.6928339, -6.3239544 ] } },
{ "type": "Feature", "properties": { "osm_id": 1308659688.0, "population": null, "is_in": null, "source": null, "place": "village", "name": "Cibodas" }, "geometry": { "type": "Point", "coordinates": [ 106.6671076, -6.4863499 ] } },
{ "type": "Feature", "properties": { "osm_id": 1308659818.0, "population": null, "is_in": null, "source": null, "place": "village", "name": "Cipedak" }, "geometry": { "type": "Point", "coordinates": [ 106.8016288, -6.3518261 ] } },
{ "type": "Feature", "properties": { "osm_id": 1308659833.0, "population": null, "is_in": null, "source": null, "place": "village", "name": "Suradita" }, "geometry": { "type": "Point", "coordinates": [ 106.6391801, -6.3504093 ] } },
{ "type": "Feature", "properties": { "osm_id": 1308659857.0, "population": null, "is_in": null, "source": null, "place": "village", "name": "Paninggilan Utara" }, "geometry": { "type": "Point", "coordinates": [ 106.711829, -6.240346 ] } },
{ "type": "Feature", "properties": { "osm_id": 1308659973.0, "population": null, "is_in": null, "source": null, "place": "village", "name": "Petojo Selatan" }, "geometry": { "type": "Point", "coordinates": [ 106.816434, -6.1750093 ] } },
{ "type": "Feature", "properties": { "osm_id": 1308660103.0, "population": null, "is_in": null, "source": null, "place": "village", "name": "Sukaharja" }, "geometry": { "type": "Point", "coordinates": [ 107.0390166, -6.5846775 ] } },
{ "type": "Feature", "properties": { "osm_id": 1308660227.0, "population": null, "is_in": null, "source": null, "place": "village", "name": "Sukmajaya" }, "geometry": { "type": "Point", "coordinates": [ 106.8474466, -6.4054763 ] } },
{ "type": "Feature", "properties": { "osm_id": 1308660412.0, "population": null, "is_in": null, "source": null, "place": "village", "name": "Cibeber Ii" }, "geometry": { "type": "Point", "coordinates": [ 106.6238826, -6.5872833 ] } },
{ "type": "Feature", "properties": { "osm_id": 1308660495.0, "population": null, "is_in": null, "source": null, "place": "village", "name": "Kemiri" }, "geometry": { "type": "Point", "coordinates": [ 106.4662112, -6.1006809 ] } },
{ "type": "Feature", "properties": { "osm_id": 1308660536.0, "population": null, "is_in": null, "source": null, "place": "village", "name": "Sirnagalih" }, "geometry": { "type": "Point", "coordinates": [ 107.0737256, -6.4922006 ] } },
{ "type": "Feature", "properties": { "osm_id": 1308660588.0, "population": null, "is_in": null, "source": null, "place": "village", "name": "Benda Baru" }, "geometry": { "type": "Point", "coordinates": [ 106.7149921, -6.3320802 ] } },
{ "type": "Feature", "properties": { "osm_id": 1308660591.0, "population": null, "is_in": null, "source": null, "place": "village", "name": "Cipinang Muara" }, "geometry": { "type": "Point", "coordinates": [ 106.8881716, -6.2262109 ] } },
{ "type": "Feature", "properties": { "osm_id": 1308660609.0, "population": null, "is_in": null, "source": null, "place": "village", "name": "Petojo Utara" }, "geometry": { "type": "Point", "coordinates": [ 106.8153732, -6.1655438 ] } },
{ "type": "Feature", "properties": { "osm_id": 1308660682.0, "population": null, "is_in": null, "source": null, "place": "village", "name": "Menteng" }, "geometry": { "type": "Point", "coordinates": [ 106.8352111, -6.2010459 ] } },
{ "type": "Feature", "properties": { "osm_id": 1308660712.0, "population": null, "is_in": null, "source": null, "place": "village", "name": "Karangharum" }, "geometry": { "type": "Point", "coordinates": [ 107.2284347, -6.2377797 ] } },
{ "type": "Feature", "properties": { "osm_id": 1308660722.0, "population": null, "is_in": null, "source": null, "place": "village", "name": "Pasir Madang" }, "geometry": { "type": "Point", "coordinates": [ 106.4683664, -6.5852111 ] } },
{ "type": "Feature", "properties": { "osm_id": 1308660792.0, "population": null, "is_in": null, "source": null, "place": "village", "name": "Lubangbuaya" }, "geometry": { "type": "Point", "coordinates": [ 107.0589319, -6.317143 ] } },
{ "type": "Feature", "properties": { "osm_id": 1308660871.0, "population": null, "is_in": null, "source": null, "place": "village", "name": "Mekarsari" }, "geometry": { "type": "Point", "coordinates": [ 106.5381201, -6.1251758 ] } },
{ "type": "Feature", "properties": { "osm_id": 1308660983.0, "population": null, "is_in": null, "source": null, "place": "village", "name": "Bendungan" }, "geometry": { "type": "Point", "coordinates": [ 107.0670936, -6.5058037 ] } },
{ "type": "Feature", "properties": { "osm_id": 1308661091.0, "population": null, "is_in": null, "source": null, "place": "village", "name": "Jurang Mangu Barat" }, "geometry": { "type": "Point", "coordinates": [ 106.731329, -6.2616407 ] } },
{ "type": "Feature", "properties": { "osm_id": 1308661305.0, "population": null, "is_in": null, "source": null, "place": "village", "name": "Karangbaru" }, "geometry": { "type": "Point", "coordinates": [ 107.1599087, -6.2608338 ] } },
{ "type": "Feature", "properties": { "osm_id": 1308661433.0, "population": null, "is_in": null, "source": null, "place": "village", "name": "Pasirgombong" }, "geometry": { "type": "Point", "coordinates": [ 107.1535209, -6.2852265 ] } },
{ "type": "Feature", "properties": { "osm_id": 1308661446.0, "population": null, "is_in": null, "source": null, "place": "village", "name": "Cikeas" }, "geometry": { "type": "Point", "coordinates": [ 106.8440519, -6.5895627 ] } },
{ "type": "Feature", "properties": { "osm_id": 1308661481.0, "population": null, "is_in": null, "source": null, "place": "village", "name": "Samudrajaya" }, "geometry": { "type": "Point", "coordinates": [ 107.0056523, -6.1001508 ] } },
{ "type": "Feature", "properties": { "osm_id": 1308661486.0, "population": null, "is_in": null, "source": null, "place": "village", "name": "Kayu Agung" }, "geometry": { "type": "Point", "coordinates": [ 106.5873925, -6.0972301 ] } },
{ "type": "Feature", "properties": { "osm_id": 1308661493.0, "population": null, "is_in": null, "source": null, "place": "village", "name": "Kreo" }, "geometry": { "type": "Point", "coordinates": [ 106.7400742, -6.2349192 ] } },
{ "type": "Feature", "properties": { "osm_id": 1308661526.0, "population": null, "is_in": null, "source": null, "place": "village", "name": "Babakan Raden" }, "geometry": { "type": "Point", "coordinates": [ 107.109827, -6.5030421 ] } },
{ "type": "Feature", "properties": { "osm_id": 1308661558.0, "population": null, "is_in": null, "source": null, "place": "village", "name": "Kalisari" }, "geometry": { "type": "Point", "coordinates": [ 106.8529356, -6.3345458 ] } },
{ "type": "Feature", "properties": { "osm_id": 1308661561.0, "population": null, "is_in": null, "source": null, "place": "village", "name": "Sindang Jaya" }, "geometry": { "type": "Point", "coordinates": [ 106.5034901, -6.1571012 ] } },
{ "type": "Feature", "properties": { "osm_id": 1308661599.0, "population": null, "is_in": null, "source": null, "place": "village", "name": "Margajaya" }, "geometry": { "type": "Point", "coordinates": [ 106.9938086, -6.2549753 ] } },
{ "type": "Feature", "properties": { "osm_id": 1308661602.0, "population": null, "is_in": null, "source": null, "place": "village", "name": "Rawa Terate" }, "geometry": { "type": "Point", "coordinates": [ 106.9215512, -6.1869376 ] } },
{ "type": "Feature", "properties": { "osm_id": 1308661783.0, "population": null, "is_in": null, "source": null, "place": "village", "name": "Hegarmukti" }, "geometry": { "type": "Point", "coordinates": [ 107.1938129, -6.3336959 ] } },
{ "type": "Feature", "properties": { "osm_id": 1308661850.0, "population": null, "is_in": null, "source": null, "place": "village", "name": "Sukakersa" }, "geometry": { "type": "Point", "coordinates": [ 107.1939172, -6.1221588 ] } },
{ "type": "Feature", "properties": { "osm_id": 1308661855.0, "population": null, "is_in": null, "source": null, "place": "village", "name": "Kalibaru" }, "geometry": { "type": "Point", "coordinates": [ 106.6232258, -6.0538733 ] } },
{ "type": "Feature", "properties": { "osm_id": 1308661861.0, "population": null, "is_in": null, "source": null, "place": "village", "name": "Panunggangan" }, "geometry": { "type": "Point", "coordinates": [ 106.6412705, -6.2241463 ] } },
{ "type": "Feature", "properties": { "osm_id": 1308661909.0, "population": null, "is_in": null, "source": null, "place": "village", "name": "Nanggewer Mekar" }, "geometry": { "type": "Point", "coordinates": [ 106.8399574, -6.4994306 ] } },
{ "type": "Feature", "properties": { "osm_id": 1308661953.0, "population": null, "is_in": null, "source": null, "place": "village", "name": "Sukabakti" }, "geometry": { "type": "Point", "coordinates": [ 107.1269662, -6.1606077 ] } },
{ "type": "Feature", "properties": { "osm_id": 1308661954.0, "population": null, "is_in": null, "source": null, "place": "village", "name": "Petukangan Utara" }, "geometry": { "type": "Point", "coordinates": [ 106.7510906, -6.2296276 ] } },
{ "type": "Feature", "properties": { "osm_id": 1308661959.0, "population": null, "is_in": null, "source": null, "place": "village", "name": "Curug Wetan" }, "geometry": { "type": "Point", "coordinates": [ 106.5679352, -6.2652844 ] } },
{ "type": "Feature", "properties": { "osm_id": 1308661967.0, "population": null, "is_in": null, "source": null, "place": "village", "name": "Parung Panjang" }, "geometry": { "type": "Point", "coordinates": [ 106.5653055, -6.3487209 ] } },
{ "type": "Feature", "properties": { "osm_id": 1308662001.0, "population": null, "is_in": null, "source": null, "place": "village", "name": "Mulangsari" }, "geometry": { "type": "Point", "coordinates": [ 107.2088858, -6.463493 ] } },
{ "type": "Feature", "properties": { "osm_id": 1308662004.0, "population": null, "is_in": null, "source": null, "place": "village", "name": "Aren Jaya" }, "geometry": { "type": "Point", "coordinates": [ 107.0208437, -6.2304316 ] } },
{ "type": "Feature", "properties": { "osm_id": 1308662053.0, "population": null, "is_in": null, "source": null, "place": "village", "name": "Cibadak" }, "geometry": { "type": "Point", "coordinates": [ 106.7842689, -6.5516273 ] } },
{ "type": "Feature", "properties": { "osm_id": 1308662062.0, "population": null, "is_in": null, "source": null, "place": "village", "name": "Mampang Prapatan" }, "geometry": { "type": "Point", "coordinates": [ 106.8286635, -6.2426756 ] } },
{ "type": "Feature", "properties": { "osm_id": 1308662175.0, "population": null, "is_in": null, "source": null, "place": "village", "name": "Sukaragam" }, "geometry": { "type": "Point", "coordinates": [ 107.1180281, -6.3928553 ] } },
{ "type": "Feature", "properties": { "osm_id": 1308662226.0, "population": null, "is_in": null, "source": null, "place": "village", "name": "Krukut" }, "geometry": { "type": "Point", "coordinates": [ 106.786253, -6.362237 ] } },
{ "type": "Feature", "properties": { "osm_id": 1308662239.0, "population": null, "is_in": null, "source": null, "place": "village", "name": "Rawa Boni" }, "geometry": { "type": "Point", "coordinates": [ 106.603148, -6.0840856 ] } },
{ "type": "Feature", "properties": { "osm_id": 1308662248.0, "population": null, "is_in": null, "source": null, "place": "village", "name": "Sukarasa" }, "geometry": { "type": "Point", "coordinates": [ 106.631464, -6.1721037 ] } },
{ "type": "Feature", "properties": { "osm_id": 1308662360.0, "population": null, "is_in": null, "source": null, "place": "village", "name": "Sukasari" }, "geometry": { "type": "Point", "coordinates": [ 106.6339174, -6.4223998 ] } },
{ "type": "Feature", "properties": { "osm_id": 1308662408.0, "population": null, "is_in": null, "source": null, "place": "village", "name": "Sarimukti" }, "geometry": { "type": "Point", "coordinates": [ 107.0960653, -6.1909985 ] } },
{ "type": "Feature", "properties": { "osm_id": 1308662409.0, "population": null, "is_in": null, "source": null, "place": "village", "name": "Guntur" }, "geometry": { "type": "Point", "coordinates": [ 106.8333124, -6.2083116 ] } },
{ "type": "Feature", "properties": { "osm_id": 1308662415.0, "population": null, "is_in": null, "source": null, "place": "village", "name": "Pala Sari" }, "geometry": { "type": "Point", "coordinates": [ 106.5609435, -6.3000576 ] } },
{ "type": "Feature", "properties": { "osm_id": 1308662424.0, "population": null, "is_in": null, "source": null, "place": "village", "name": "Gunung Sindur" }, "geometry": { "type": "Point", "coordinates": [ 106.6751906, -6.3902924 ] } },
{ "type": "Feature", "properties": { "osm_id": 1308662466.0, "population": null, "is_in": null, "source": null, "place": "village", "name": "Jatiwaringin" }, "geometry": { "type": "Point", "coordinates": [ 106.9147359, -6.2724577 ] } },
{ "type": "Feature", "properties": { "osm_id": 1308662471.0, "population": null, "is_in": null, "source": null, "place": "village", "name": "Mata Gara" }, "geometry": { "type": "Point", "coordinates": [ 106.4876096, -6.2495361 ] } },
{ "type": "Feature", "properties": { "osm_id": 1308662518.0, "population": null, "is_in": null, "source": null, "place": "village", "name": "Margajaya" }, "geometry": { "type": "Point", "coordinates": [ 106.7503928, -6.5873398 ] } },
{ "type": "Feature", "properties": { "osm_id": 1308662522.0, "population": null, "is_in": null, "source": null, "place": "village", "name": "Pejaten Timur" }, "geometry": { "type": "Point", "coordinates": [ 106.8469064, -6.2808809 ] } },
{ "type": "Feature", "properties": { "osm_id": 1308662637.0, "population": null, "is_in": null, "source": null, "place": "village", "name": "Telukjaya" }, "geometry": { "type": "Point", "coordinates": [ 107.1528129, -6.0546744 ] } },
{ "type": "Feature", "properties": { "osm_id": 1308662651.0, "population": null, "is_in": null, "source": null, "place": "village", "name": "Leuwikaret" }, "geometry": { "type": "Point", "coordinates": [ 106.9293108, -6.5215866 ] } },
{ "type": "Feature", "properties": { "osm_id": 1308662693.0, "population": null, "is_in": null, "source": null, "place": "village", "name": "Neroktog" }, "geometry": { "type": "Point", "coordinates": [ 106.6857661, -6.2057863 ] } },
{ "type": "Feature", "properties": { "osm_id": 1308662731.0, "population": null, "is_in": null, "source": null, "place": "village", "name": "Cibentang" }, "geometry": { "type": "Point", "coordinates": [ 106.6810469, -6.4444216 ] } },
{ "type": "Feature", "properties": { "osm_id": 1308662804.0, "population": null, "is_in": null, "source": null, "place": "village", "name": "Sukamaju" }, "geometry": { "type": "Point", "coordinates": [ 107.1051881, -6.1728813 ] } },
{ "type": "Feature", "properties": { "osm_id": 1308662808.0, "population": null, "is_in": null, "source": null, "place": "village", "name": "Bencongan" }, "geometry": { "type": "Point", "coordinates": [ 106.5987505, -6.2352521 ] } },
{ "type": "Feature", "properties": { "osm_id": 1308662815.0, "population": null, "is_in": null, "source": null, "place": "village", "name": "Batok" }, "geometry": { "type": "Point", "coordinates": [ 106.5102005, -6.379456 ] } },
{ "type": "Feature", "properties": { "osm_id": 1308662844.0, "population": null, "is_in": null, "source": null, "place": "village", "name": "Sumurbatu" }, "geometry": { "type": "Point", "coordinates": [ 107.0089126, -6.348567 ] } },
{ "type": "Feature", "properties": { "osm_id": 1308662848.0, "population": null, "is_in": null, "source": null, "place": "village", "name": "Pekojan" }, "geometry": { "type": "Point", "coordinates": [ 106.8040238, -6.1369666 ] } },
{ "type": "Feature", "properties": { "osm_id": 1308662849.0, "population": "279.785", "is_in": null, "source": null, "place": "village", "name": "Cikupa" }, "geometry": { "type": "Point", "coordinates": [ 106.5203821, -6.2407879 ] } },
{ "type": "Feature", "properties": { "osm_id": 1308662888.0, "population": null, "is_in": null, "source": null, "place": "village", "name": "Porisgaga Baru" }, "geometry": { "type": "Point", "coordinates": [ 106.6731301, -6.1694723 ] } },
{ "type": "Feature", "properties": { "osm_id": 1308662990.0, "population": null, "is_in": null, "source": null, "place": "village", "name": "Ciujung" }, "geometry": { "type": "Point", "coordinates": [ 106.8368741, -6.5372365 ] } },
{ "type": "Feature", "properties": { "osm_id": 1308663019.0, "population": null, "is_in": null, "source": null, "place": "village", "name": "Serua" }, "geometry": { "type": "Point", "coordinates": [ 106.7401993, -6.3678718 ] } },
{ "type": "Feature", "properties": { "osm_id": 1308663051.0, "population": null, "is_in": null, "source": null, "place": "village", "name": "Cimone" }, "geometry": { "type": "Point", "coordinates": [ 106.6107809, -6.1916652 ] } },
{ "type": "Feature", "properties": { "osm_id": 1308663204.0, "population": null, "is_in": null, "source": null, "place": "village", "name": "Iwul" }, "geometry": { "type": "Point", "coordinates": [ 106.7176899, -6.4580616 ] } },
{ "type": "Feature", "properties": { "osm_id": 1308663317.0, "population": null, "is_in": null, "source": null, "place": "village", "name": "Satriamekar" }, "geometry": { "type": "Point", "coordinates": [ 107.0593579, -6.2000734 ] } },
{ "type": "Feature", "properties": { "osm_id": 1308663331.0, "population": null, "is_in": null, "source": null, "place": "village", "name": "Malang Nengah" }, "geometry": { "type": "Point", "coordinates": [ 106.5833938, -6.3319019 ] } },
{ "type": "Feature", "properties": { "osm_id": 1308663352.0, "population": null, "is_in": null, "source": null, "place": "village", "name": "Panunggangan Barat" }, "geometry": { "type": "Point", "coordinates": [ 106.6220578, -6.2202154 ] } },
{ "type": "Feature", "properties": { "osm_id": 1308663354.0, "population": null, "is_in": null, "source": null, "place": "village", "name": "Jampang" }, "geometry": { "type": "Point", "coordinates": [ 106.6640406, -6.4075615 ] } },
{ "type": "Feature", "properties": { "osm_id": 1308663573.0, "population": null, "is_in": null, "source": null, "place": "village", "name": "Kebonkelapa" }, "geometry": { "type": "Point", "coordinates": [ 106.7730637, -6.5834244 ] } },
{ "type": "Feature", "properties": { "osm_id": 1308663582.0, "population": null, "is_in": null, "source": null, "place": "village", "name": "Pasar Minggu" }, "geometry": { "type": "Point", "coordinates": [ 106.8390511, -6.2893924 ] } },
{ "type": "Feature", "properties": { "osm_id": 1308663727.0, "population": null, "is_in": null, "source": null, "place": "village", "name": "Tajur" }, "geometry": { "type": "Point", "coordinates": [ 106.9139839, -6.5472848 ] } },
{ "type": "Feature", "properties": { "osm_id": 1308663754.0, "population": null, "is_in": null, "source": null, "place": "village", "name": "Curug" }, "geometry": { "type": "Point", "coordinates": [ 106.7374245, -6.3987798 ] } },
{ "type": "Feature", "properties": { "osm_id": 1308663845.0, "population": null, "is_in": null, "source": null, "place": "village", "name": "Tanjungbungin" }, "geometry": { "type": "Point", "coordinates": [ 107.1237718, -6.0144474 ] } },
{ "type": "Feature", "properties": { "osm_id": 1308663849.0, "population": null, "is_in": null, "source": null, "place": "village", "name": "Jelupang" }, "geometry": { "type": "Point", "coordinates": [ 106.6679955, -6.2659239 ] } },
{ "type": "Feature", "properties": { "osm_id": 1308663892.0, "population": null, "is_in": null, "source": null, "place": "village", "name": "Singajaya" }, "geometry": { "type": "Point", "coordinates": [ 107.0223575, -6.4929848 ] } },
{ "type": "Feature", "properties": { "osm_id": 1308663925.0, "population": null, "is_in": null, "source": null, "place": "village", "name": "Muncul" }, "geometry": { "type": "Point", "coordinates": [ 106.6642389, -6.3436257 ] } },
{ "type": "Feature", "properties": { "osm_id": 1308663963.0, "population": null, "is_in": null, "source": null, "place": "village", "name": "Kampung Bali" }, "geometry": { "type": "Point", "coordinates": [ 106.8160095, -6.1849724 ] } },
{ "type": "Feature", "properties": { "osm_id": 1308664100.0, "population": null, "is_in": null, "source": null, "place": "village", "name": "Sukadamai" }, "geometry": { "type": "Point", "coordinates": [ 107.0402846, -6.5567832 ] } },
{ "type": "Feature", "properties": { "osm_id": 1308664290.0, "population": null, "is_in": null, "source": null, "place": "village", "name": "Duren Mekar" }, "geometry": { "type": "Point", "coordinates": [ 106.7441831, -6.4171443 ] } },
{ "type": "Feature", "properties": { "osm_id": 1308664329.0, "population": null, "is_in": null, "source": null, "place": "village", "name": "Banyu Asih" }, "geometry": { "type": "Point", "coordinates": [ 106.5220463, -6.0608559 ] } },
{ "type": "Feature", "properties": { "osm_id": 1308664590.0, "population": null, "is_in": null, "source": null, "place": "village", "name": "Tegalega" }, "geometry": { "type": "Point", "coordinates": [ 106.6014378, -6.4703456 ] } },
{ "type": "Feature", "properties": { "osm_id": 1308664790.0, "population": null, "is_in": null, "source": null, "place": "village", "name": "Buaran Jati" }, "geometry": { "type": "Point", "coordinates": [ 106.5518864, -6.0781073 ] } },
{ "type": "Feature", "properties": { "osm_id": 1308664793.0, "population": null, "is_in": null, "source": null, "place": "village", "name": "Gunung Sahari Utara" }, "geometry": { "type": "Point", "coordinates": [ 106.8376909, -6.1504141 ] } },
{ "type": "Feature", "properties": { "osm_id": 1308664894.0, "population": null, "is_in": null, "source": null, "place": "village", "name": "Sasak Panjang" }, "geometry": { "type": "Point", "coordinates": [ 106.7656351, -6.4695889 ] } },
{ "type": "Feature", "properties": { "osm_id": 1308664957.0, "population": null, "is_in": null, "source": null, "place": "village", "name": "Malaka Jaya" }, "geometry": { "type": "Point", "coordinates": [ 106.9362377, -6.223973 ] } },
{ "type": "Feature", "properties": { "osm_id": 1308664961.0, "population": null, "is_in": null, "source": null, "place": "village", "name": "Cireundeu" }, "geometry": { "type": "Point", "coordinates": [ 106.7668766, -6.3067744 ] } },
{ "type": "Feature", "properties": { "osm_id": 1308664964.0, "population": null, "is_in": null, "source": null, "place": "village", "name": "Cempaka Baru" }, "geometry": { "type": "Point", "coordinates": [ 106.8619785, -6.1677049 ] } },
{ "type": "Feature", "properties": { "osm_id": 1308665066.0, "population": null, "is_in": null, "source": null, "place": "village", "name": "Meruya Utara" }, "geometry": { "type": "Point", "coordinates": [ 106.742505, -6.1958612 ] } },
{ "type": "Feature", "properties": { "osm_id": 1308665134.0, "population": null, "is_in": null, "source": null, "place": "village", "name": "Karangasih" }, "geometry": { "type": "Point", "coordinates": [ 107.1640673, -6.2505772 ] } },
{ "type": "Feature", "properties": { "osm_id": 1308665143.0, "population": null, "is_in": null, "source": null, "place": "village", "name": "Leuwiliang" }, "geometry": { "type": "Point", "coordinates": [ 106.6362707, -6.557096 ] } },
{ "type": "Feature", "properties": { "osm_id": 1308665246.0, "population": null, "is_in": null, "source": null, "place": "village", "name": "Babakan Sadeng" }, "geometry": { "type": "Point", "coordinates": [ 106.5884063, -6.5751358 ] } },
{ "type": "Feature", "properties": { "osm_id": 1308665278.0, "population": null, "is_in": null, "source": null, "place": "village", "name": "Bunibakti" }, "geometry": { "type": "Point", "coordinates": [ 107.0495351, -6.0938922 ] } },
{ "type": "Feature", "properties": { "osm_id": 1308665284.0, "population": null, "is_in": null, "source": null, "place": "village", "name": "Tanjakan Mekar" }, "geometry": { "type": "Point", "coordinates": [ 106.53616, -6.0971436 ] } },
{ "type": "Feature", "properties": { "osm_id": 1308665323.0, "population": null, "is_in": null, "source": null, "place": "village", "name": "Kalongsawah" }, "geometry": { "type": "Point", "coordinates": [ 106.4989906, -6.4941026 ] } },
{ "type": "Feature", "properties": { "osm_id": 1308665358.0, "population": null, "is_in": null, "source": null, "place": "village", "name": "Dukuh" }, "geometry": { "type": "Point", "coordinates": [ 106.8780003, -6.2951231 ] } },
{ "type": "Feature", "properties": { "osm_id": 1308665359.0, "population": null, "is_in": null, "source": null, "place": "village", "name": "Wana Kerta" }, "geometry": { "type": "Point", "coordinates": [ 106.5032738, -6.1910533 ] } },
{ "type": "Feature", "properties": { "osm_id": 1308665397.0, "population": null, "is_in": null, "source": null, "place": "village", "name": "Kenari" }, "geometry": { "type": "Point", "coordinates": [ 106.8465703, -6.1926888 ] } },
{ "type": "Feature", "properties": { "osm_id": 1308665427.0, "population": null, "is_in": null, "source": null, "place": "village", "name": "Jatibaru" }, "geometry": { "type": "Point", "coordinates": [ 107.2034352, -6.2748348 ] } },
{ "type": "Feature", "properties": { "osm_id": 1308665504.0, "population": null, "is_in": null, "source": null, "place": "village", "name": "Pasirsari" }, "geometry": { "type": "Point", "coordinates": [ 107.1580682, -6.3060503 ] } },
{ "type": "Feature", "properties": { "osm_id": 1308665511.0, "population": null, "is_in": null, "source": null, "place": "village", "name": "Muara" }, "geometry": { "type": "Point", "coordinates": [ 106.6885692, -6.0297046 ] } },
{ "type": "Feature", "properties": { "osm_id": 1308665548.0, "population": null, "is_in": null, "source": null, "place": "village", "name": "Karangharja" }, "geometry": { "type": "Point", "coordinates": [ 107.2121942, -6.1055285 ] } },
{ "type": "Feature", "properties": { "osm_id": 1308665554.0, "population": null, "is_in": null, "source": null, "place": "village", "name": "Rawa Kidang" }, "geometry": { "type": "Point", "coordinates": [ 106.564706, -6.0708515 ] } },
{ "type": "Feature", "properties": { "osm_id": 1308665559.0, "population": null, "is_in": null, "source": null, "place": "village", "name": "Pondok Bahar" }, "geometry": { "type": "Point", "coordinates": [ 106.7002832, -6.2053972 ] } },
{ "type": "Feature", "properties": { "osm_id": 1308665594.0, "population": null, "is_in": null, "source": null, "place": "village", "name": "Tonjong" }, "geometry": { "type": "Point", "coordinates": [ 106.7662226, -6.4980996 ] } },
{ "type": "Feature", "properties": { "osm_id": 1308665627.0, "population": null, "is_in": null, "source": null, "place": "village", "name": "Pondok Kelapa" }, "geometry": { "type": "Point", "coordinates": [ 106.9333134, -6.2422972 ] } },
{ "type": "Feature", "properties": { "osm_id": 1308665631.0, "population": null, "is_in": null, "source": null, "place": "village", "name": "Pondok Kacang Barat" }, "geometry": { "type": "Point", "coordinates": [ 106.6824725, -6.248884 ] } },
{ "type": "Feature", "properties": { "osm_id": 1308665659.0, "population": null, "is_in": null, "source": null, "place": "village", "name": "Wanakerta" }, "geometry": { "type": "Point", "coordinates": [ 107.2237251, -6.373334 ] } },
{ "type": "Feature", "properties": { "osm_id": 1308665679.0, "population": null, "is_in": null, "source": null, "place": "village", "name": "Bojong Pondok Terong" }, "geometry": { "type": "Point", "coordinates": [ 106.8028857, -6.4490164 ] } },
{ "type": "Feature", "properties": { "osm_id": 1308665683.0, "population": null, "is_in": null, "source": null, "place": "village", "name": "Jati" }, "geometry": { "type": "Point", "coordinates": [ 106.8979445, -6.1920892 ] } },
{ "type": "Feature", "properties": { "osm_id": 1308666139.0, "population": null, "is_in": null, "source": null, "place": "village", "name": "Cileduk" }, "geometry": { "type": "Point", "coordinates": [ 107.0507822, -6.3548836 ] } },
{ "type": "Feature", "properties": { "osm_id": 1308666308.0, "population": null, "is_in": null, "source": null, "place": "village", "name": "Sukatenang" }, "geometry": { "type": "Point", "coordinates": [ 107.0753071, -6.0897236 ] } },
{ "type": "Feature", "properties": { "osm_id": 1308666328.0, "population": null, "is_in": null, "source": null, "place": "village", "name": "Tanah Merah" }, "geometry": { "type": "Point", "coordinates": [ 106.5914702, -6.115568 ] } },
{ "type": "Feature", "properties": { "osm_id": 1308666378.0, "population": null, "is_in": null, "source": null, "place": "village", "name": "Sudimara Timur" }, "geometry": { "type": "Point", "coordinates": [ 106.7175476, -6.230799 ] } },
{ "type": "Feature", "properties": { "osm_id": 1308666537.0, "population": null, "is_in": null, "source": null, "place": "village", "name": "Candali" }, "geometry": { "type": "Point", "coordinates": [ 106.7210452, -6.5121987 ] } },
{ "type": "Feature", "properties": { "osm_id": 1308666655.0, "population": null, "is_in": null, "source": null, "place": "village", "name": "Cijantung" }, "geometry": { "type": "Point", "coordinates": [ 106.8587894, -6.3212053 ] } },
{ "type": "Feature", "properties": { "osm_id": 1308666658.0, "population": null, "is_in": null, "source": null, "place": "village", "name": "Gelam Jaya" }, "geometry": { "type": "Point", "coordinates": [ 106.5599014, -6.1726202 ] } },
{ "type": "Feature", "properties": { "osm_id": 1308666694.0, "population": null, "is_in": null, "source": null, "place": "village", "name": "Kranji" }, "geometry": { "type": "Point", "coordinates": [ 106.9755761, -6.2307248 ] } },
{ "type": "Feature", "properties": { "osm_id": 1308666696.0, "population": null, "is_in": null, "source": null, "place": "village", "name": "Sungai Bambu" }, "geometry": { "type": "Point", "coordinates": [ 106.8853888, -6.1290163 ] } },
{ "type": "Feature", "properties": { "osm_id": 1308666802.0, "population": null, "is_in": null, "source": null, "place": "village", "name": "Jayamulya" }, "geometry": { "type": "Point", "coordinates": [ 107.078538, -6.4085661 ] } },
{ "type": "Feature", "properties": { "osm_id": 1308666810.0, "population": null, "is_in": null, "source": null, "place": "village", "name": "Kosambi Timur" }, "geometry": { "type": "Point", "coordinates": [ 106.7005106, -6.0789766 ] } },
{ "type": "Feature", "properties": { "osm_id": 1308666899.0, "population": null, "is_in": null, "source": null, "place": "village", "name": "Sukakarya" }, "geometry": { "type": "Point", "coordinates": [ 107.1772609, -6.1310712 ] } },
{ "type": "Feature", "properties": { "osm_id": 1308666939.0, "population": null, "is_in": null, "source": null, "place": "village", "name": "Paku Haji" }, "geometry": { "type": "Point", "coordinates": [ 106.5883001, -6.0798634 ] } },
{ "type": "Feature", "properties": { "osm_id": 1308666981.0, "population": null, "is_in": null, "source": null, "place": "village", "name": "Ketapang" }, "geometry": { "type": "Point", "coordinates": [ 106.6972226, -6.1794553 ] } },
{ "type": "Feature", "properties": { "osm_id": 1308667194.0, "population": null, "is_in": null, "source": null, "place": "village", "name": "Rengasjajar" }, "geometry": { "type": "Point", "coordinates": [ 106.5691508, -6.447572 ] } },
{ "type": "Feature", "properties": { "osm_id": 1308667269.0, "population": null, "is_in": null, "source": null, "place": "village", "name": "Sukajadi" }, "geometry": { "type": "Point", "coordinates": [ 107.1974787, -6.1684726 ] } },
{ "type": "Feature", "properties": { "osm_id": 1308667270.0, "population": null, "is_in": null, "source": null, "place": "village", "name": "Menteng Atas" }, "geometry": { "type": "Point", "coordinates": [ 106.8405069, -6.217658 ] } },
{ "type": "Feature", "properties": { "osm_id": 1308667273.0, "population": null, "is_in": null, "source": null, "place": "village", "name": "Panongan" }, "geometry": { "type": "Point", "coordinates": [ 106.5271588, -6.2826406 ] } },
{ "type": "Feature", "properties": { "osm_id": 1308667279.0, "population": null, "is_in": null, "source": null, "place": "village", "name": "Singabangsa" }, "geometry": { "type": "Point", "coordinates": [ 106.47379, -6.3218092 ] } },
{ "type": "Feature", "properties": { "osm_id": 1308667349.0, "population": null, "is_in": null, "source": null, "place": "village", "name": "Mustikasari" }, "geometry": { "type": "Point", "coordinates": [ 107.0150199, -6.2985975 ] } },
{ "type": "Feature", "properties": { "osm_id": 1308667351.0, "population": null, "is_in": null, "source": null, "place": "village", "name": "Kelapa Gading Barat" }, "geometry": { "type": "Point", "coordinates": [ 106.8951708, -6.1556025 ] } },
{ "type": "Feature", "properties": { "osm_id": 1308667353.0, "population": null, "is_in": null, "source": null, "place": "village", "name": "Daru" }, "geometry": { "type": "Point", "coordinates": [ 106.4982307, -6.3319561 ] } },
{ "type": "Feature", "properties": { "osm_id": 1308667382.0, "population": null, "is_in": null, "source": null, "place": "village", "name": "Kencana" }, "geometry": { "type": "Point", "coordinates": [ 106.7922067, -6.5332925 ] } },
{ "type": "Feature", "properties": { "osm_id": 1308667462.0, "population": null, "is_in": null, "source": null, "place": "village", "name": "Sukasari" }, "geometry": { "type": "Point", "coordinates": [ 107.11389, -6.380048 ] } },
{ "type": "Feature", "properties": { "osm_id": 1308667618.0, "population": null, "is_in": null, "source": null, "place": "village", "name": "Pangkalanjati Baru" }, "geometry": { "type": "Point", "coordinates": [ 106.7966247, -6.3260438 ] } },
{ "type": "Feature", "properties": { "osm_id": 1308667666.0, "population": null, "is_in": null, "source": null, "place": "village", "name": "Kelapa Indah" }, "geometry": { "type": "Point", "coordinates": [ 106.6419654, -6.2008829 ] } },
{ "type": "Feature", "properties": { "osm_id": 1308667743.0, "population": null, "is_in": null, "source": null, "place": "village", "name": "Sukamanah" }, "geometry": { "type": "Point", "coordinates": [ 107.0482942, -6.4410089 ] } },
{ "type": "Feature", "properties": { "osm_id": 1308667798.0, "population": null, "is_in": null, "source": null, "place": "village", "name": "Sukahurip" }, "geometry": { "type": "Point", "coordinates": [ 107.1551321, -6.1827574 ] } },
{ "type": "Feature", "properties": { "osm_id": 1308667802.0, "population": null, "is_in": null, "source": null, "place": "village", "name": "Babat" }, "geometry": { "type": "Point", "coordinates": [ 106.5460203, -6.3256607 ] } },
{ "type": "Feature", "properties": { "osm_id": 1308667809.0, "population": null, "is_in": null, "source": null, "place": "village", "name": "Sukamulya" }, "geometry": { "type": "Point", "coordinates": [ 106.6394673, -6.3771994 ] } },
{ "type": "Feature", "properties": { "osm_id": 1308667860.0, "population": null, "is_in": null, "source": null, "place": "village", "name": "Sunter Agung" }, "geometry": { "type": "Point", "coordinates": [ 106.8643448, -6.138604 ] } },
{ "type": "Feature", "properties": { "osm_id": 1308667871.0, "population": null, "is_in": null, "source": null, "place": "village", "name": "Pasir Jaya" }, "geometry": { "type": "Point", "coordinates": [ 106.5303345, -6.2034377 ] } },
{ "type": "Feature", "properties": { "osm_id": 1308667921.0, "population": null, "is_in": null, "source": null, "place": "village", "name": "Cimahpar" }, "geometry": { "type": "Point", "coordinates": [ 106.8233973, -6.5848522 ] } },
{ "type": "Feature", "properties": { "osm_id": 1308667929.0, "population": null, "is_in": null, "source": null, "place": "village", "name": "Bintaro" }, "geometry": { "type": "Point", "coordinates": [ 106.7648364, -6.2682262 ] } },
{ "type": "Feature", "properties": { "osm_id": 1308667948.0, "population": null, "is_in": null, "source": null, "place": "village", "name": "Neglasari" }, "geometry": { "type": "Point", "coordinates": [ 106.625647, -6.1470623 ] } },
{ "type": "Feature", "properties": { "osm_id": 1308668091.0, "population": null, "is_in": null, "source": null, "place": "village", "name": "Bojongmangu" }, "geometry": { "type": "Point", "coordinates": [ 107.1934683, -6.4337399 ] } },
{ "type": "Feature", "properties": { "osm_id": 1308668132.0, "population": null, "is_in": null, "source": null, "place": "village", "name": "Pasir Mukti" }, "geometry": { "type": "Point", "coordinates": [ 106.8964698, -6.5152356 ] } },
{ "type": "Feature", "properties": { "osm_id": 1308668223.0, "population": null, "is_in": null, "source": null, "place": "village", "name": "Kemirimuka" }, "geometry": { "type": "Point", "coordinates": [ 106.8297259, -6.3823042 ] } },
{ "type": "Feature", "properties": { "osm_id": 1308668259.0, "population": null, "is_in": null, "source": null, "place": "village", "name": "Pabuaran Tumpeng" }, "geometry": { "type": "Point", "coordinates": [ 106.6151396, -6.1676986 ] } },
{ "type": "Feature", "properties": { "osm_id": 1308668363.0, "population": null, "is_in": null, "source": null, "place": "village", "name": "Cipinang" }, "geometry": { "type": "Point", "coordinates": [ 106.6241495, -6.4390454 ] } },
{ "type": "Feature", "properties": { "osm_id": 1308668400.0, "population": null, "is_in": null, "source": null, "place": "village", "name": "Kertamukti" }, "geometry": { "type": "Point", "coordinates": [ 107.1187066, -6.2199613 ] } },
{ "type": "Feature", "properties": { "osm_id": 1308668406.0, "population": null, "is_in": null, "source": null, "place": "village", "name": "Curug Sangereng" }, "geometry": { "type": "Point", "coordinates": [ 106.622363, -6.2546767 ] } },
{ "type": "Feature", "properties": { "osm_id": 1308668413.0, "population": null, "is_in": null, "source": null, "place": "village", "name": "Jatiuwung" }, "geometry": { "type": "Point", "coordinates": [ 106.5933664, -6.1941588 ] } },
{ "type": "Feature", "properties": { "osm_id": 1308668417.0, "population": null, "is_in": null, "source": null, "place": "village", "name": "Jatisari" }, "geometry": { "type": "Point", "coordinates": [ 107.0338196, -6.4233585 ] } },
{ "type": "Feature", "properties": { "osm_id": 1308668461.0, "population": null, "is_in": null, "source": null, "place": "village", "name": "Jatiluhur" }, "geometry": { "type": "Point", "coordinates": [ 106.9503734, -6.3202089 ] } },
{ "type": "Feature", "properties": { "osm_id": 1308668469.0, "population": null, "is_in": null, "source": null, "place": "village", "name": "Jambe" }, "geometry": { "type": "Point", "coordinates": [ 106.4876887, -6.3096419 ] } },
{ "type": "Feature", "properties": { "osm_id": 1308668470.0, "population": null, "is_in": null, "source": null, "place": "village", "name": "Tegal Alur" }, "geometry": { "type": "Point", "coordinates": [ 106.7164165, -6.1191781 ] } },
{ "type": "Feature", "properties": { "osm_id": 1308668555.0, "population": null, "is_in": null, "source": null, "place": "village", "name": "Jagakarsa" }, "geometry": { "type": "Point", "coordinates": [ 106.8194219, -6.3247665 ] } },
{ "type": "Feature", "properties": { "osm_id": 1308668716.0, "population": null, "is_in": null, "source": null, "place": "village", "name": "Tangkil" }, "geometry": { "type": "Point", "coordinates": [ 106.8700376, -6.5394993 ] } },
{ "type": "Feature", "properties": { "osm_id": 1308668852.0, "population": null, "is_in": null, "source": null, "place": "village", "name": "Depok" }, "geometry": { "type": "Point", "coordinates": [ 106.8275494, -6.4094768 ] } },
{ "type": "Feature", "properties": { "osm_id": 1308669104.0, "population": null, "is_in": null, "source": null, "place": "village", "name": "Cibeuteung Muara" }, "geometry": { "type": "Point", "coordinates": [ 106.6723496, -6.4531007 ] } },
{ "type": "Feature", "properties": { "osm_id": 1308669244.0, "population": null, "is_in": null, "source": null, "place": "village", "name": "Paku Jaya" }, "geometry": { "type": "Point", "coordinates": [ 106.6770065, -6.2376612 ] } },
{ "type": "Feature", "properties": { "osm_id": 1308669464.0, "population": null, "is_in": null, "source": null, "place": "village", "name": "Jembatan Besi" }, "geometry": { "type": "Point", "coordinates": [ 106.7975286, -6.1516382 ] } },
{ "type": "Feature", "properties": { "osm_id": 1308669561.0, "population": null, "is_in": null, "source": null, "place": "village", "name": "Pondok Cabe Ilir" }, "geometry": { "type": "Point", "coordinates": [ 106.7674669, -6.3323101 ] } },
{ "type": "Feature", "properties": { "osm_id": 1308669565.0, "population": null, "is_in": null, "source": null, "place": "village", "name": "Jurumudi Baru" }, "geometry": { "type": "Point", "coordinates": [ 106.680407, -6.1481185 ] } },
{ "type": "Feature", "properties": { "osm_id": 1308669597.0, "population": null, "is_in": null, "source": null, "place": "village", "name": "Duri Kosambi" }, "geometry": { "type": "Point", "coordinates": [ 106.7201486, -6.1704014 ] } },
{ "type": "Feature", "properties": { "osm_id": 1308669748.0, "population": null, "is_in": null, "source": null, "place": "village", "name": "Mekar Jaya" }, "geometry": { "type": "Point", "coordinates": [ 106.8404624, -6.3904009 ] } },
{ "type": "Feature", "properties": { "osm_id": 1308669796.0, "population": null, "is_in": null, "source": null, "place": "village", "name": "Pabuaran" }, "geometry": { "type": "Point", "coordinates": [ 106.8016279, -6.4677972 ] } },
{ "type": "Feature", "properties": { "osm_id": 1308669873.0, "population": null, "is_in": null, "source": null, "place": "village", "name": "Cintamanik" }, "geometry": { "type": "Point", "coordinates": [ 106.5527491, -6.4826302 ] } },
{ "type": "Feature", "properties": { "osm_id": 1308669909.0, "population": null, "is_in": null, "source": null, "place": "village", "name": "Dangdang" }, "geometry": { "type": "Point", "coordinates": [ 106.6173636, -6.3507813 ] } },
{ "type": "Feature", "properties": { "osm_id": 1308669915.0, "population": null, "is_in": null, "source": null, "place": "village", "name": "Sudimara Jaya" }, "geometry": { "type": "Point", "coordinates": [ 106.7107723, -6.2329055 ] } },
{ "type": "Feature", "properties": { "osm_id": 1308669953.0, "population": null, "is_in": null, "source": null, "place": "village", "name": "Tanah Tinggi" }, "geometry": { "type": "Point", "coordinates": [ 106.8494106, -6.1798929 ] } },
{ "type": "Feature", "properties": { "osm_id": 1308669995.0, "population": null, "is_in": null, "source": null, "place": "village", "name": "Jatimulya" }, "geometry": { "type": "Point", "coordinates": [ 107.0358355, -6.265437 ] } },
{ "type": "Feature", "properties": { "osm_id": 1308670003.0, "population": null, "is_in": null, "source": null, "place": "village", "name": "Sukamakmur" }, "geometry": { "type": "Point", "coordinates": [ 106.981713, -6.5829271 ] } },
{ "type": "Feature", "properties": { "osm_id": 1308670069.0, "population": null, "is_in": null, "source": null, "place": "village", "name": "Gunung Sari" }, "geometry": { "type": "Point", "coordinates": [ 106.4946647, -6.0790461 ] } },
{ "type": "Feature", "properties": { "osm_id": 1308670131.0, "population": null, "is_in": null, "source": null, "place": "village", "name": "Barengkok" }, "geometry": { "type": "Point", "coordinates": [ 106.633763, -6.5877105 ] } },
{ "type": "Feature", "properties": { "osm_id": 1308670210.0, "population": null, "is_in": null, "source": null, "place": "village", "name": "Tegal" }, "geometry": { "type": "Point", "coordinates": [ 106.7194789, -6.4865324 ] } },
{ "type": "Feature", "properties": { "osm_id": 1308670299.0, "population": null, "is_in": null, "source": null, "place": "village", "name": "Bali Mester" }, "geometry": { "type": "Point", "coordinates": [ 106.8667169, -6.2204721 ] } },
{ "type": "Feature", "properties": { "osm_id": 1308670315.0, "population": null, "is_in": null, "source": null, "place": "village", "name": "Sawah Baru" }, "geometry": { "type": "Point", "coordinates": [ 106.7194703, -6.2883855 ] } },
{ "type": "Feature", "properties": { "osm_id": 1308670328.0, "population": null, "is_in": null, "source": null, "place": "village", "name": "Sumur Batu" }, "geometry": { "type": "Point", "coordinates": [ 106.8701023, -6.1636676 ] } },
{ "type": "Feature", "properties": { "osm_id": 1308670452.0, "population": null, "is_in": null, "source": null, "place": "village", "name": "Pegangsaan" }, "geometry": { "type": "Point", "coordinates": [ 106.8474914, -6.2019499 ] } },
{ "type": "Feature", "properties": { "osm_id": 1308670550.0, "population": null, "is_in": null, "source": null, "place": "village", "name": "Wanasari" }, "geometry": { "type": "Point", "coordinates": [ 107.0939998, -6.24438 ] } },
{ "type": "Feature", "properties": { "osm_id": 1308670561.0, "population": null, "is_in": null, "source": null, "place": "village", "name": "Cipambuan" }, "geometry": { "type": "Point", "coordinates": [ 106.8470886, -6.5580123 ] } },
{ "type": "Feature", "properties": { "osm_id": 1308670742.0, "population": null, "is_in": null, "source": null, "place": "village", "name": "Parakan Muncang" }, "geometry": { "type": "Point", "coordinates": [ 106.539752, -6.5872326 ] } },
{ "type": "Feature", "properties": { "osm_id": 1308670792.0, "population": null, "is_in": null, "source": null, "place": "village", "name": "Pantaisederhana" }, "geometry": { "type": "Point", "coordinates": [ 107.0156471, -5.9950265 ] } },
{ "type": "Feature", "properties": { "osm_id": 1308670802.0, "population": null, "is_in": null, "source": null, "place": "village", "name": "Rajeg" }, "geometry": { "type": "Point", "coordinates": [ 106.5052612, -6.1193004 ] } },
{ "type": "Feature", "properties": { "osm_id": 1308670853.0, "population": null, "is_in": null, "source": null, "place": "village", "name": "Kedung Waringin" }, "geometry": { "type": "Point", "coordinates": [ 106.796115, -6.4990958 ] } },
{ "type": "Feature", "properties": { "osm_id": 1308670887.0, "population": null, "is_in": null, "source": null, "place": "village", "name": "Bale Kambang" }, "geometry": { "type": "Point", "coordinates": [ 106.8520631, -6.2807497 ] } },
{ "type": "Feature", "properties": { "osm_id": 1308670888.0, "population": null, "is_in": null, "source": null, "place": "village", "name": "Pondok Aren" }, "geometry": { "type": "Point", "coordinates": [ 106.7183358, -6.2625951 ] } },
{ "type": "Feature", "properties": { "osm_id": 1308670922.0, "population": null, "is_in": null, "source": null, "place": "village", "name": "Medansatria" }, "geometry": { "type": "Point", "coordinates": [ 106.9771771, -6.1991516 ] } },
{ "type": "Feature", "properties": { "osm_id": 1308670925.0, "population": null, "is_in": null, "source": null, "place": "village", "name": "Utan Kayu Selatan" }, "geometry": { "type": "Point", "coordinates": [ 106.8687494, -6.2033061 ] } },
{ "type": "Feature", "properties": { "osm_id": 1308670955.0, "population": null, "is_in": null, "source": null, "place": "village", "name": "Tanjungbaru" }, "geometry": { "type": "Point", "coordinates": [ 107.221066, -6.2722261 ] } },
{ "type": "Feature", "properties": { "osm_id": 1308671160.0, "population": null, "is_in": null, "source": null, "place": "village", "name": "Gandamekar" }, "geometry": { "type": "Point", "coordinates": [ 107.0923132, -6.2907142 ] } },
{ "type": "Feature", "properties": { "osm_id": 1308671167.0, "population": null, "is_in": null, "source": null, "place": "village", "name": "Kampung Besar" }, "geometry": { "type": "Point", "coordinates": [ 106.6642704, -6.0585957 ] } },
{ "type": "Feature", "properties": { "osm_id": 1308671172.0, "population": null, "is_in": null, "source": null, "place": "village", "name": "Dramaga" }, "geometry": { "type": "Point", "coordinates": [ 106.7412646, -6.5835441 ] } },
{ "type": "Feature", "properties": { "osm_id": 1308671203.0, "population": null, "is_in": null, "source": null, "place": "village", "name": "Sindangsari" }, "geometry": { "type": "Point", "coordinates": [ 107.1618565, -6.0946519 ] } },
{ "type": "Feature", "properties": { "osm_id": 1308671208.0, "population": null, "is_in": null, "source": null, "place": "village", "name": "Kayu Bongkok" }, "geometry": { "type": "Point", "coordinates": [ 106.5761729, -6.0943304 ] } },
{ "type": "Feature", "properties": { "osm_id": 1308671217.0, "population": null, "is_in": null, "source": null, "place": "village", "name": "Pedurenan" }, "geometry": { "type": "Point", "coordinates": [ 106.6979862, -6.2224363 ] } },
{ "type": "Feature", "properties": { "osm_id": 1308671347.0, "population": null, "is_in": null, "source": null, "place": "village", "name": "Banyu Wangi" }, "geometry": { "type": "Point", "coordinates": [ 106.5781276, -6.4957878 ] } },
{ "type": "Feature", "properties": { "osm_id": 1308671417.0, "population": null, "is_in": null, "source": null, "place": "village", "name": "Jakamulya" }, "geometry": { "type": "Point", "coordinates": [ 106.9620897, -6.2664712 ] } },
{ "type": "Feature", "properties": { "osm_id": 1308671419.0, "population": null, "is_in": null, "source": null, "place": "village", "name": "Cakung Barat" }, "geometry": { "type": "Point", "coordinates": [ 106.9358048, -6.173369 ] } },
{ "type": "Feature", "properties": { "osm_id": 1308671590.0, "population": null, "is_in": null, "source": null, "place": "village", "name": "Ciantra" }, "geometry": { "type": "Point", "coordinates": [ 107.1105268, -6.3462482 ] } },
{ "type": "Feature", "properties": { "osm_id": 1308671719.0, "population": null, "is_in": null, "source": null, "place": "village", "name": "Kebalen" }, "geometry": { "type": "Point", "coordinates": [ 107.0061484, -6.1414616 ] } },
{ "type": "Feature", "properties": { "osm_id": 1308671724.0, "population": null, "is_in": null, "source": null, "place": "village", "name": "Kebon Cau" }, "geometry": { "type": "Point", "coordinates": [ 106.6593091, -6.092638 ] } },
{ "type": "Feature", "properties": { "osm_id": 1308671731.0, "population": null, "is_in": null, "source": null, "place": "village", "name": "Panunggangan Utara" }, "geometry": { "type": "Point", "coordinates": [ 106.6394229, -6.2180343 ] } },
{ "type": "Feature", "properties": { "osm_id": 1308671764.0, "population": null, "is_in": null, "source": null, "place": "village", "name": "Pabuaran" }, "geometry": { "type": "Point", "coordinates": [ 106.7382308, -6.5087012 ] } },
{ "type": "Feature", "properties": { "osm_id": 1308671815.0, "population": null, "is_in": null, "source": null, "place": "village", "name": "Sukawijaya" }, "geometry": { "type": "Point", "coordinates": [ 107.1491148, -6.1553209 ] } },
{ "type": "Feature", "properties": { "osm_id": 1308671820.0, "population": null, "is_in": null, "source": null, "place": "village", "name": "Menteng Dalam" }, "geometry": { "type": "Point", "coordinates": [ 106.8418824, -6.230139 ] } },
{ "type": "Feature", "properties": { "osm_id": 1308671926.0, "population": null, "is_in": null, "source": null, "place": "village", "name": "Wanajaya" }, "geometry": { "type": "Point", "coordinates": [ 107.2252585, -6.3927225 ] } },
{ "type": "Feature", "properties": { "osm_id": 1308671963.0, "population": null, "is_in": null, "source": null, "place": "village", "name": "Koja" }, "geometry": { "type": "Point", "coordinates": [ 106.8999006, -6.1052638 ] } },
{ "type": "Feature", "properties": { "osm_id": 1308672082.0, "population": null, "is_in": null, "source": null, "place": "village", "name": "Semplak" }, "geometry": { "type": "Point", "coordinates": [ 106.7634377, -6.560069 ] } },
{ "type": "Feature", "properties": { "osm_id": 1308672092.0, "population": null, "is_in": null, "source": null, "place": "village", "name": "Melawai" }, "geometry": { "type": "Point", "coordinates": [ 106.8023344, -6.2451217 ] } },
{ "type": "Feature", "properties": { "osm_id": 1308672290.0, "population": null, "is_in": null, "source": null, "place": "village", "name": "Ragemanunggal" }, "geometry": { "type": "Point", "coordinates": [ 107.035607, -6.3898866 ] } },
{ "type": "Feature", "properties": { "osm_id": 1308672402.0, "population": null, "is_in": null, "source": null, "place": "village", "name": "Tugu" }, "geometry": { "type": "Point", "coordinates": [ 106.8541886, -6.3685746 ] } },
{ "type": "Feature", "properties": { "osm_id": 1308672411.0, "population": null, "is_in": null, "source": null, "place": "village", "name": "Bunisari" }, "geometry": { "type": "Point", "coordinates": [ 106.5971745, -6.0942612 ] } },
{ "type": "Feature", "properties": { "osm_id": 1308672416.0, "population": null, "is_in": null, "source": null, "place": "village", "name": "Bojongjaya" }, "geometry": { "type": "Point", "coordinates": [ 106.6219082, -6.2015755 ] } },
{ "type": "Feature", "properties": { "osm_id": 1308672475.0, "population": null, "is_in": null, "source": null, "place": "village", "name": "Waru" },